     3.02           OBSERVATION DATA    M: Mixed            RINEX VERSION / TYPE
GNSS-SDRLIB v1.1                        20210507 190717 UTC PGM / RUN BY / DATE 
                                                            MARKER NAME         
                                                            MARKER NUMBER       
                                                            MARKER TYPE         
                                                            OBSERVER / AGENCY   
GNSS-SDRLIB         GNSS-SDRLIB         1.1                 REC # / TYPE / VERS 
                                                            ANT # / TYPE        
        0.0000        0.0000        0.0000                  APPROX POSITION XYZ 
        0.0000        0.0000        0.0000                  ANTENNA: DELTA H/E/N
G    4 C1C L1C D1C S1C                                      SYS / # / OBS TYPES 
R    4 C1C L1C D1C S1C                                      SYS / # / OBS TYPES 
E    4 C1C L1C D1C S1C                                      SYS / # / OBS TYPES 
J    4 C1C L1C D1C S1C                                      SYS / # / OBS TYPES 
S    4 C1C L1C D1C S1C                                      SYS / # / OBS TYPES 
C    4 C1C L1C D1C S1C                                      SYS / # / OBS TYPES 
  1970     1     1     0     0    0.0000000     GPS         TIME OF FIRST OBS   
  1970     1     1     0     0    0.0000000     GPS         TIME OF LAST OBS    
G                                                           SYS / PHASE SHIFT   
R                                                           SYS / PHASE SHIFT   
E                                                           SYS / PHASE SHIFT   
J                                                           SYS / PHASE SHIFT   
S                                                           SYS / PHASE SHIFT   
C                                                           SYS / PHASE SHIFT   
  0                                                         GLONASS SLOT / FRQ #
 C1C    0.000 C1P    0.000 C2C    0.000 C2P    0.000        GLONASS COD/PHS/BIS 
                                                            END OF HEADER       
> 2014  7  3 10 11 36.0688020  0  1                     
G20  20626412.532         961.114          70.064          45.000  
> 2014  7  3 10 11 36.1688020  0  4                     
G 1  21942382.898       31525.936        2032.792          44.250  
G 6  24915469.317      -37965.235       -2451.398          36.500  
G 4  22956880.602      -35371.738       -2249.457          40.000  
G20  20626414.419         968.098          69.426          45.000  
> 2014  7  3 10 11 36.2688020  0  4                     
G 1  21942422.231       31729.270        2032.925          44.000  
G 6  24915424.165      -38210.269       -2451.068          36.000  
G 4  22956837.046      -35596.662       -2249.711          40.000  
G20  20626417.062         975.130          69.886          45.000  
> 2014  7  3 10 11 36.3688020  0  4                     
G 1  21942460.204       31932.542        2032.288          44.250  
G 6  24915377.785      -38455.398       -2452.193          36.500  
G 4  22956794.103      -35821.620       -2249.194          39.750  
G20  20626419.854         982.115          70.082          45.000  
> 2014  7  3 10 11 36.4688020  0  4                     
G 1  21942499.584       32135.868        2033.336          44.250  
G 6  24915331.457      -38700.444       -2451.520          36.500  
G 4  22956750.341      -36046.528       -2249.165          40.000  
G20  20626423.713         989.152          70.496          45.000  
> 2014  7  3 10 11 36.5688020  0  4                     
G 1  21942538.386       32339.156        2032.156          44.250  
G 6  24915285.440      -38945.524       -2450.385          36.500  
G 4  22956706.899      -36271.491       -2249.383          39.750  
G20  20626428.380         996.164          70.424          44.750  
> 2014  7  3 10 11 36.6688020  0  4                     
G 1  21942577.453       32542.463        2033.959          44.250  
G 6  24915237.757      -39190.591       -2449.330          36.250  
G 4  22956664.754      -36496.434       -2249.300          39.750  
G20  20626427.618        1003.179          71.100          44.750  
> 2014  7  3 10 11 36.7688020  0  4                     
G 1  21942615.811       32745.766        2032.620          44.250  
G 6  24915191.357      -39435.671       -2451.729          36.500  
G 4  22956622.672      -36721.363       -2250.628          39.500  
G20  20626428.755        1010.221          69.644          45.000  
> 2014  7  3 10 11 36.8688020  0  4                     
G 1  21942655.305       32949.071        2032.889          44.000  
G 6  24915144.905      -39680.726       -2450.987          36.000  
G 4  22956577.743      -36946.277       -2249.084          39.750  
G20  20626428.799        1017.257          70.832          45.000  
> 2014  7  3 10 11 36.9688020  0  4                     
G 1  21942694.249       33152.367        2032.852          44.250  
G 6  24915098.119      -39925.820       -2451.724          36.250  
G 4  22956535.902      -37171.220       -2249.145          40.000  
G20  20626428.537        1024.290          70.064          44.750  
> 2014  7  3 10 11 37.0688020  0  4                     
G 1  21942732.201       33355.627        2033.102          44.000  
G 6  24915050.403      -40170.952       -2451.457          36.000  
G 4  22956493.567      -37396.214       -2249.952          40.000  
G20  20626428.908        1031.288          70.220          45.000  
> 2014  7  3 10 11 37.1688020  0  4                     
G 1  21942770.604       33558.933        2033.042          44.250  
G 6  24915004.875      -40416.011       -2450.670          35.750  
G 4  22956450.779      -37621.123       -2248.896          39.750  
G20  20626428.369        1038.346          70.670          44.750  
> 2014  7  3 10 11 37.2688020  0  4                     
G 1  21942808.840       33762.219        2032.557          44.250  
G 6  24914959.844      -40661.101       -2450.879          36.250  
G 4  22956409.104      -37846.083       -2248.974          40.000  
G20  20626429.012        1045.391          70.877          45.000  
> 2014  7  3 10 11 37.3688020  0  4                     
G 1  21942847.102       33965.488        2032.524          44.250  
G 6  24914914.228      -40906.190       -2450.188          36.000  
G 4  22956367.630      -38071.028       -2248.671          39.750  
G20  20626428.666        1052.424          70.702          45.000  
> 2014  7  3 10 11 37.4688020  0  4                     
G 1  21942887.146       34168.821        2032.867          44.250  
G 6  24914868.861      -41151.255       -2450.208          35.750  
G 4  22956324.735      -38295.949       -2249.552          39.500  
G20  20626429.192        1059.505          71.092          45.000  
> 2014  7  3 10 11 37.5688020  0  4                     
G 1  21942926.213       34372.115        2032.844          44.250  
G 6  24914820.779      -41396.341       -2450.497          36.000  
G 4  22956281.231      -38520.892       -2248.967          39.250  
G20  20626431.751        1066.564          70.605          45.000  
> 2014  7  3 10 11 37.6688020  0  4                     
G 1  21942964.492       34575.432        2033.685          44.250  
G 6  24914772.743      -41641.415       -2451.458          35.750  
G 4  22956237.529      -38745.817       -2249.544          39.750  
G20  20626434.002        1073.658          70.917          45.000  
> 2014  7  3 10 11 37.7688020  0  4                     
G 1  21943004.604       34778.770        2032.901          44.250  
G 6  24914725.754      -41886.441       -2450.012          35.500  
G 4  22956193.055      -38970.694       -2247.814          39.750  
G20  20626437.989        1080.771          71.404          44.750  
> 2014  7  3 10 11 37.8688020  0  4                     
G 1  21943042.831       34982.100        2032.895          44.250  
G 6  24914678.166      -42131.504       -2451.793          35.750  
G 4  22956150.742      -39195.575       -2247.859          39.500  
G20  20626442.796        1087.892          70.912          45.000  
> 2014  7  3 10 11 37.9688020  0  4                     
G 1  21943081.143       35185.445        2033.646          44.250  
G 6  24914629.581      -42376.515       -2449.385          35.500  
G 4  22956108.672      -39420.480       -2249.490          39.500  
G20  20626447.343        1095.023          71.386          45.000  
> 2014  7  3 10 11 38.0688020  0  4                     
G 1  21943119.696       35388.718        2032.901          44.250  
G 6  24914582.763      -42621.635       -2450.121          35.750  
G 4  22956065.905      -39645.417       -2249.001          39.750  
G20  20626446.753        1102.079          70.730          45.000  
> 2014  7  3 10 11 38.1688020  0  4                     
G 1  21943157.761       35592.035        2032.415          44.250  
G 6  24914537.211      -42866.699       -2450.751          35.500  
G 4  22956023.040      -39870.341       -2249.278          39.250  
G20  20626447.187        1109.194          71.513          45.000  
> 2014  7  3 10 11 38.2688020  0  4                     
G 1  21943195.808       35795.388        2033.404          44.250  
G 6  24914491.159      -43111.705       -2449.418          35.750  
G 4  22955980.695      -40095.208       -2248.648          39.500  
G20  20626446.504        1116.366          72.082          45.000  
> 2014  7  3 10 11 38.3688020  0  4                     
G 1  21943234.192       35998.762        2033.109          44.250  
G 6  24914443.274      -43356.719       -2450.738          35.750  
G 4  22955937.370      -40320.079       -2249.326          39.500  
G20  20626446.561        1123.536          71.345          45.000  
> 2014  7  3 10 11 38.4688020  0  4                     
G 1  21943272.806       36202.139        2034.027          44.250  
G 6  24914397.485      -43601.726       -2449.970          35.500  
G 4  22955894.383      -40544.913       -2247.938          39.750  
G20  20626446.870        1130.726          71.674          45.000  
> 2014  7  3 10 11 38.5688020  0  4                     
G 1  21943312.429       36405.509        2034.248          44.250  
G 6  24914350.480      -43846.762       -2450.454          35.250  
G 4  22955851.258      -40769.801       -2249.628          39.500  
G20  20626446.950        1137.892          71.648          45.000  
> 2014  7  3 10 11 38.6688020  0  4                     
G 1  21943351.264       36608.834        2033.787          44.250  
G 6  24914303.589      -44091.805       -2450.508          35.500  
G 4  22955808.091      -40994.669       -2248.019          39.750  
G20  20626447.173        1145.053          72.046          45.000  
> 2014  7  3 10 11 38.7688020  0  4                     
G 1  21943390.277       36812.208        2033.595          44.250  
G 6  24914255.117      -44336.816       -2451.352          35.500  
G 4  22955766.581      -41219.539       -2250.127          39.250  
G20  20626448.298        1152.252          72.251          45.000  
> 2014  7  3 10 11 38.8688020  0  4                     
G 1  21943428.173       37015.561        2033.757          44.250  
G 6  24914209.863      -44581.844       -2449.915          35.500  
G 4  22955724.963      -41444.404       -2247.610          39.500  
G20  20626449.573        1159.427          72.270          45.000  
> 2014  7  3 10 11 38.9688020  0  4                     
G 1  21943466.033       37218.929        2032.618          44.000  
G 6  24914162.279      -44826.852       -2450.674          35.000  
G 4  22955680.893      -41669.262       -2249.334          39.500  
G20  20626452.969        1166.633          71.842          44.750  
> 2014  7  3 10 11 39.0688020  0  4                     
G 1  21943504.112       37422.288        2033.724          44.250  
G 6  24914115.292      -45071.886       -2450.048          35.000  
G 4  22955638.085      -41894.117       -2247.715          39.750  
G20  20626456.358        1173.833          73.059          44.750  
> 2014  7  3 10 11 39.1688020  0  4                     
G 1  21943543.899       37625.682        2033.929          44.000  
G 6  24914066.586      -45316.886       -2448.979          35.000  
G 4  22955596.140      -42118.948       -2248.193          39.500  
G20  20626461.016        1181.064          71.489          45.000  
> 2014  7  3 10 11 39.2688020  0  4                     
G 1  21943582.796       37829.017        2032.880          44.250  
G 6  24914019.261      -45561.940       -2451.045          34.750  
G 4  22955551.873      -42343.833       -2248.366          39.500  
G20  20626464.655        1188.250          71.791          45.000  
> 2014  7  3 10 11 39.3688020  0  4                     
G 1  21943620.550       38032.360        2033.210          44.250  
G 6  24913971.369      -45806.964       -2451.949          34.500  
G 4  22955510.259      -42568.700       -2248.238          39.750  
G20  20626464.597        1195.459          71.783          45.000  
> 2014  7  3 10 11 39.4688020  0  4                     
G 1  21943659.052       38235.735        2033.875          44.250  
G 6  24913924.529      -46051.981       -2450.955          35.000  
G 4  22955466.813      -42793.558       -2248.322          39.250  
G20  20626464.546        1202.688          71.922          45.000  
> 2014  7  3 10 11 39.5688020  0  4                     
G 1  21943697.999       38439.116        2033.771          44.250  
G 6  24913878.041      -46296.985       -2449.878          35.000  
G 4  22955425.639      -43018.404       -2248.372          39.500  
G20  20626465.300        1209.923          71.893          45.000  
> 2014  7  3 10 11 39.6688020  0  4                     
G 1  21943736.591       38642.469        2032.914          44.250  
G 6  24913831.135      -46542.017       -2449.432          34.750  
G 4  22955382.845      -43243.269       -2248.460          39.500  
G20  20626464.637        1217.149          72.561          45.000  
> 2014  7  3 10 11 39.7688020  0  4                     
G 1  21943774.961       38845.826        2032.576          44.250  
G 6  24913786.398      -46787.062       -2450.667          34.750  
G 4  22955339.720      -43468.127       -2248.613          39.750  
G20  20626465.462        1224.385          72.027          45.250  
> 2014  7  3 10 11 39.8688020  0  4                     
G 1  21943814.241       39049.107        2032.668          44.250  
G 6  24913738.172      -47032.155       -2452.173          34.750  
G 4  22955295.407      -43693.057       -2249.778          39.750  
G20  20626464.903        1231.547          71.182          45.250  
> 2014  7  3 10 11 39.9688020  0  4                     
G 1  21943852.984       39252.407        2032.963          44.250  
G 6  24913691.662      -47277.243       -2451.223          34.750  
G 4  22955252.880      -43917.972       -2249.507          39.750  
G20  20626465.599        1238.734          71.958          45.250  
> 2014  7  3 10 11 40.0688020  0  4                     
G 1  21943891.120       39455.771        2033.313          44.250  
G 6  24913645.262      -47522.275       -2450.731          34.500  
G 4  22955211.575      -44142.828       -2248.437          39.750  
G20  20626466.178        1245.972          72.257          45.000  
> 2014  7  3 10 11 40.1688020  0  4                     
G 1  21943929.583       39659.107        2033.355          44.000  
G 6  24913596.566      -47767.318       -2451.509          34.500  
G 4  22955167.389      -44367.713       -2249.455          39.500  
G20  20626466.553        1253.201          72.137          45.250  
> 2014  7  3 10 11 40.2688020  0  4                     
G 1  21943968.227       39862.429        2033.938          44.250  
G 6  24913551.355      -48012.377       -2449.426          34.250  
G 4  22955124.600      -44592.597       -2248.176          39.500  
G20  20626468.346        1260.420          72.503          45.250  
> 2014  7  3 10 11 40.3688020  0  4                     
G 1  21944006.577       40065.800        2033.915          44.000  
G 6  24913503.456      -48257.413       -2451.164          34.250  
G 4  22955083.681      -44817.452       -2248.390          39.500  
G20  20626470.427        1267.701          73.214          45.250  
> 2014  7  3 10 11 40.4688020  0  4                     
G 1  21944046.346       40269.160        2033.256          44.000  
G 6  24913455.740      -48502.423       -2451.856          34.250  
G 4  22955040.871      -45042.292       -2247.927          39.500  
G20  20626472.998        1274.968          73.394          45.000  
> 2014  7  3 10 11 40.5688020  0  4                     
G 1  21944085.169       40472.520        2032.911          44.000  
G 6  24913410.015      -48747.457       -2451.302          34.500  
G 4  22954995.779      -45267.135       -2248.250          39.750  
G20  20626477.810        1282.249          72.422          45.000  
> 2014  7  3 10 11 40.6688020  0  4                     
G 1  21944123.403       40675.847        2033.513          44.000  
G 6  24913364.905      -48992.511       -2451.590          34.000  
G 4  22954954.102      -45492.033       -2249.047          39.750  
G20  20626483.510        1289.482          72.312          45.000  
> 2014  7  3 10 11 40.7688020  0  4                     
G 1  21944162.411       40879.187        2034.122          44.250  
G 6  24913318.567      -49237.569       -2450.428          34.000  
G 4  22954913.004      -45716.903       -2248.935          39.750  
G20  20626483.189        1296.750          72.875          45.000  
> 2014  7  3 10 11 40.8688020  0  4                     
G 1  21944201.327       41082.512        2032.700          44.250  
G 6  24913273.258      -49482.627       -2450.522          34.250  
G 4  22954869.014      -45941.780       -2248.309          40.000  
G20  20626483.459        1304.009          72.947          45.000  
> 2014  7  3 10 11 40.9688020  0  4                     
G 1  21944240.016       41285.834        2033.567          44.250  
G 6  24913226.174      -49727.696       -2451.248          34.000  
G 4  22954826.373      -46166.674       -2248.270          39.500  
G20  20626483.252        1311.253          72.223          45.000  
> 2014  7  3 10 11 41.0688020  0  4                     
G 1  21944278.677       41489.194        2033.690          44.250  
G 6  24913179.863      -49972.732       -2449.324          34.250  
G 4  22954782.655      -46391.530       -2248.452          39.750  
G20  20626483.146        1318.553          72.873          45.250  
> 2014  7  3 10 11 41.1688020  0  4                     
G 1  21944316.889       41692.529        2033.581          44.250  
G 6  24913133.874      -50217.791       -2450.719          34.000  
G 4  22954738.033      -46616.388       -2249.029          39.750  
G20  20626483.983        1325.823          72.620          45.250  
> 2014  7  3 10 11 41.2688020  0  4                     
G 1  21944354.913       41895.806        2032.907          44.000  
G 6  24913087.790      -50462.904       -2451.615          34.000  
G 4  22954694.721      -46841.322       -2248.299          39.500  
G20  20626485.194        1333.045          72.370          45.000  
> 2014  7  3 10 11 41.3688020  0  4                     
G 1  21944394.719       42099.139        2034.123          44.250  
G 6  24913039.787      -50707.954       -2450.509          34.000  
G 4  22954651.910      -47066.199       -2247.875          39.500  
G20  20626486.918        1340.342          73.811          45.250  
> 2014  7  3 10 11 41.4688020  0  4                     
G 1  21944434.115       42302.483        2033.158          44.250  
G 6  24912993.181      -50953.003       -2449.695          34.000  
G 4  22954612.484      -47291.061       -2248.820          39.500  
G20  20626489.299        1347.640          73.363          45.250  
> 2014  7  3 10 11 41.5688020  0  4                     
G 1  21944471.958       42505.829        2033.495          44.000  
G 6  24912947.976      -51198.068       -2450.505          34.500  
G 4  22954568.273      -47515.939       -2249.457          39.500  
G20  20626491.846        1354.934          73.185          45.000  
> 2014  7  3 10 11 41.6688020  0  4                     
G 1  21944511.051       42709.201        2034.115          44.000  
G 6  24912900.004      -51443.068       -2448.820          34.000  
G 4  22954527.817      -47740.756       -2247.332          39.750  
G20  20626495.409        1362.284          74.515          45.000  
> 2014  7  3 10 11 41.7688020  0  4                     
G 1  21944550.154       42912.601        2034.049          44.250  
G 6  24912852.156      -51688.072       -2450.234          34.250  
G 4  22954483.796      -47965.565       -2247.055          39.750  
G20  20626500.487        1369.642          73.715          45.000  
> 2014  7  3 10 11 41.8688020  0  4                     
G 1  21944588.511       43115.983        2034.123          44.250  
G 6  24912805.487      -51933.094       -2449.012          34.250  
G 4  22954440.054      -48190.386       -2248.259          40.000  
G20  20626501.753        1377.001          73.397          45.000  
> 2014  7  3 10 11 41.9688020  0  4                     
G 1  21944626.451       43319.394        2034.275          44.250  
G 6  24912758.957      -52178.064       -2449.721          34.250  
G 4  22954396.351      -48415.182       -2248.649          39.500  
G20  20626501.590        1384.394          73.534          45.250  
> 2014  7  3 10 11 42.0688020  0  4                     
G 1  21944665.512       43522.810        2034.400          44.250  
G 6  24912712.566      -52423.042       -2449.496          34.500  
G 4  22954353.340      -48639.968       -2247.662          39.500  
G20  20626502.000        1391.799          74.088          45.250  
> 2014  7  3 10 11 42.1688020  0  4                     
G 1  21944705.055       43726.194        2033.979          44.000  
G 6  24912668.779      -52668.055       -2449.648          34.250  
G 4  22954311.548      -48864.779       -2248.178          39.500  
G20  20626501.958        1399.177          74.268          45.250  
> 2014  7  3 10 11 42.2688020  0  4                     
G 1  21944744.246       43929.606        2034.283          44.250  
G 6  24912619.838      -52913.045       -2448.541          34.250  
G 4  22954267.144      -49089.579       -2247.759          39.750  
G20  20626501.199        1406.576          75.232          45.250  
> 2014  7  3 10 11 42.3688020  0  4                     
G 1  21944782.823       44133.027        2033.896          44.250  
G 6  24912572.014      -53158.019       -2449.656          34.000  
G 4  22954224.685      -49314.352       -2247.858          39.750  
G20  20626502.313        1413.995          74.206          45.000  
> 2014  7  3 10 11 42.4688020  0  4                     
G 1  21944821.887       44336.426        2033.654          44.000  
G 6  24912527.262      -53403.035       -2450.183          34.250  
G 4  22954183.101      -49539.147       -2248.338          39.750  
G20  20626502.008        1421.401          73.718          45.250  
> 2014  7  3 10 11 42.5688020  0  4                     
G 1  21944859.769       44539.867        2034.258          44.250  
G 6  24912481.753      -53647.979       -2450.344          33.750  
G 4  22954142.644      -49763.915       -2248.067          39.750  
G20  20626503.305        1428.850          74.930          45.000  
> 2014  7  3 10 11 42.6688020  0  4                     
G 1  21944898.808       44743.288        2033.732          44.250  
G 6  24912435.516      -53892.954       -2453.630          33.750  
G 4  22954100.743      -49988.696       -2247.507          40.000  
G20  20626504.206        1436.277          74.044          45.250  
> 2014  7  3 10 11 42.7688020  0  4                     
G 1  21944937.709       44946.683        2034.359          44.250  
G 6  24912389.842      -54137.947       -2450.464          34.000  
G 4  22954059.167      -50213.500       -2248.146          39.500  
G20  20626505.666        1443.688          74.377          45.000  
> 2014  7  3 10 11 42.8688020  0  4                     
G 1  21944976.398       45150.091        2034.357          44.000  
G 6  24912341.674      -54382.958       -2450.539          34.250  
G 4  22954016.424      -50438.278       -2246.688          39.750  
G20  20626507.331        1451.121          74.234          45.000  
> 2014  7  3 10 11 42.9688020  0  4                     
G 1  21945015.728       45353.544        2033.711          44.000  
G 6  24912294.204      -54627.882       -2450.252          34.000  
G 4  22953973.160      -50663.027       -2248.504          39.750  
G20  20626511.286        1458.608          74.581          45.000  
> 2014  7  3 10 11 43.0688020  0  4                     
G 1  21945053.713       45556.955        2033.792          44.250  
G 6  24912249.453      -54872.893       -2450.082          34.250  
G 4  22953929.499      -50887.825       -2247.820          40.000  
G20  20626516.475        1466.043          74.082          45.000  
> 2014  7  3 10 11 43.1688020  0  4                     
G 1  21945092.456       45760.395        2034.286          44.250  
G 6  24912203.031      -55117.831       -2449.129          34.000  
G 4  22953887.476      -51112.564       -2247.897          40.250  
G20  20626519.494        1473.535          74.972          45.250  
> 2014  7  3 10 11 43.2688020  0  4                     
G 1  21945130.405       45963.817        2034.375          44.250  
G 6  24912154.944      -55362.814       -2450.312          34.500  
G 4  22953844.331      -51337.333       -2247.579          40.000  
G20  20626520.027        1480.995          74.510          45.000  
> 2014  7  3 10 11 43.3688020  0  4                     
G 1  21945168.855       46167.285        2034.323          44.250  
G 6  24912108.940      -55607.728       -2448.588          33.750  
G 4  22953801.948      -51562.056       -2247.151          40.000  
G20  20626520.256        1488.505          74.901          45.000  
> 2014  7  3 10 11 43.4688020  0  4                     
G 1  21945207.389       46370.724        2035.053          44.250  
G 6  24912063.202      -55852.709       -2449.171          34.000  
G 4  22953759.039      -51786.819       -2248.225          39.750  
G20  20626520.391        1495.997          75.278          45.250  
> 2014  7  3 10 11 43.5688020  0  4                     
G 1  21945246.266       46574.171        2035.356          44.250  
G 6  24912015.612      -56097.678       -2449.467          34.000  
G 4  22953714.225      -52011.566       -2246.792          40.000  
G20  20626519.641        1503.490          74.992          45.000  
> 2014  7  3 10 11 43.6688020  0  4                     
G 1  21945285.861       46777.636        2034.495          44.250  
G 6  24911964.756      -56342.596       -2449.080          34.000  
G 4  22953672.253      -52236.291       -2247.036          40.250  
G20  20626520.937        1511.020          75.008          45.250  
> 2014  7  3 10 11 43.7688020  0  4                     
G 1  21945323.399       46981.033        2033.706          44.250  
G 6  24911919.051      -56587.593       -2451.417          33.750  
G 4  22953629.853      -52461.081       -2247.637          40.000  
G20  20626521.604        1518.482          74.215          45.000  
> 2014  7  3 10 11 43.8688020  0  4                     
G 1  21945361.870       47184.427        2033.991          44.250  
G 6  24911872.190      -56832.581       -2449.604          33.500  
G 4  22953588.217      -52685.882       -2247.781          39.750  
G20  20626523.611        1525.937          73.808          45.000  
> 2014  7  3 10 11 43.9688020  0  4                     
G 1  21945400.209       47387.872        2035.114          44.250  
G 6  24911826.170      -57077.556       -2448.282          34.000  
G 4  22953546.904      -52910.623       -2247.219          39.750  
G20  20626526.694        1533.472          75.899          45.250  
> 2014  7  3 10 11 44.0688020  0  4                     
G 1  21945438.674       47591.334        2034.832          44.250  
G 6  24911782.038      -57322.504       -2451.667          33.750  
G 4  22953504.062      -53135.347       -2247.390          40.000  
G20  20626528.238        1541.010          75.232          45.250  
> 2014  7  3 10 11 44.1688020  0  4                     
G 1  21945476.216       47794.770        2033.818          44.250  
G 6  24911732.728      -57567.466       -2450.840          33.750  
G 4  22953457.866      -53360.082       -2247.042          39.750  
G20  20626532.188        1548.543          74.927          45.000  
> 2014  7  3 10 11 44.2688020  0  4                     
G 1  21945514.316       47998.216        2034.528          44.000  
G 6  24911686.612      -57812.418       -2449.257          33.750  
G 4  22953413.859      -53584.816       -2246.326          39.750  
G20  20626537.310        1556.082          75.937          45.000  
> 2014  7  3 10 11 44.3688020  0  4                     
G 1  21945553.454       48201.670        2035.227          44.250  
G 6  24911636.838      -58057.346       -2447.791          33.500  
G 4  22953373.467      -53809.573       -2247.645          39.750  
G20  20626537.861        1563.630          75.839          45.000  
> 2014  7  3 10 11 44.4688020  0  4                     
G 1  21945592.525       48405.111        2034.847          44.250  
G 6  24911593.232      -58302.321       -2448.650          34.000  
G 4  22953330.708      -54034.296       -2246.441          39.500  
G20  20626538.140        1571.168          75.955          45.250  
> 2014  7  3 10 11 44.5688020  0  4                     
G 1  21945631.899       48608.556        2033.481          44.250  
G 6  24911543.042      -58547.273       -2450.857          33.500  
G 4  22953288.260      -54259.051       -2247.756          40.000  
G20  20626537.616        1578.713          74.182          45.250  
> 2014  7  3 10 11 44.6688020  0  4                     
G 1  21945671.209       48811.982        2033.492          44.250  
G 6  24911497.130      -58792.259       -2450.007          34.000  
G 4  22953245.208      -54483.805       -2246.756          40.000  
G20  20626538.022        1586.259          75.370          45.250  
> 2014  7  3 10 11 44.7688020  0  4                     
G 1  21945710.321       49015.401        2034.110          44.000  
G 6  24911448.651      -59037.231       -2449.630          34.000  
G 4  22953201.223      -54708.587       -2247.472          40.000  
G20  20626538.603        1593.795          75.843          45.250  
> 2014  7  3 10 11 44.8688020  0  4                     
G 1  21945749.005       49218.853        2034.709          44.250  
G 6  24911402.420      -59282.192       -2450.394          33.500  
G 4  22953157.523      -54933.319       -2248.042          39.750  
G20  20626538.433        1601.355          75.420          45.000  
> 2014  7  3 10 11 44.9688020  0  4                     
G 1  21945788.168       49422.295        2034.319          44.250  
G 6  24911357.924      -59527.150       -2448.542          33.250  
G 4  22953113.525      -55158.053       -2247.949          40.000  
G20  20626539.269        1608.919          75.296          45.250  
> 2014  7  3 10 11 45.0688020  0  4                     
G 1  21945827.379       49625.753        2034.406          44.250  
G 6  24911311.412      -59772.097       -2449.603          33.500  
G 4  22953070.693      -55382.787       -2247.361          40.000  
G20  20626539.754        1616.504          76.054          45.250  
> 2014  7  3 10 11 45.1688020  0  4                     
G 1  21945865.448       49829.208        2034.220          44.250  
G 6  24911266.695      -60017.052       -2451.920          34.000  
G 4  22953030.371      -55607.494       -2247.197          39.750  
G20  20626540.233        1624.098          75.955          45.250  
> 2014  7  3 10 11 45.2688020  0  4                     
G 1  21945904.560       50032.669        2035.017          44.250  
G 6  24911219.135      -60261.993       -2450.311          33.500  
G 4  22952986.941      -55832.219       -2247.825          39.750  
G20  20626542.486        1631.689          75.648          45.250  
> 2014  7  3 10 11 45.3688020  0  4                     
G 1  21945943.071       50236.106        2034.358          44.250  
G 6  24911169.363      -60506.968       -2450.488          33.750  
G 4  22952944.596      -56056.969       -2247.913          39.750  
G20  20626545.477        1639.274          76.227          45.000  
> 2014  7  3 10 11 45.4688020  0  4                     
G 1  21945981.351       50439.559        2034.204          44.250  
G 6  24911123.187      -60751.908       -2451.274          33.500  
G 4  22952902.045      -56281.687       -2248.319          39.750  
G20  20626549.213        1646.886          75.767          45.250  
> 2014  7  3 10 11 45.5688020  0  4                     
G 1  21946019.513       50642.987        2034.588          44.000  
G 6  24911076.946      -60996.897       -2449.742          33.750  
G 4  22952859.704      -56506.435       -2247.045          39.750  
G20  20626553.670        1654.465          75.883          45.000  
> 2014  7  3 10 11 45.6688020  0  4                     
G 1  21946059.690       50846.438        2034.767          44.250  
G 6  24911032.193      -61241.842       -2449.724          33.750  
G 4  22952815.414      -56731.164       -2247.436          39.500  
G20  20626556.137        1662.073          76.276          45.000  
> 2014  7  3 10 11 45.7688020  0  4                     
G 1  21946097.889       51049.902        2034.137          44.250  
G 6  24910986.943      -61486.792       -2448.215          33.500  
G 4  22952771.456      -56955.871       -2247.147          39.500  
G20  20626556.572        1669.710          76.738          45.000  
> 2014  7  3 10 11 45.8688020  0  4                     
G 1  21946137.267       51253.383        2034.731          44.000  
G 6  24910941.344      -61731.713       -2448.633          33.500  
G 4  22952730.154      -57180.574       -2247.510          39.500  
G20  20626556.145        1677.341          76.257          45.250  
> 2014  7  3 10 11 45.9688020  0  4                     
G 1  21946175.278       51456.844        2034.760          44.000  
G 6  24910891.186      -61976.647       -2447.993          33.750  
G 4  22952688.526      -57405.283       -2247.187          39.750  
G20  20626556.566        1684.999          77.138          45.000  
> 2014  7  3 10 11 46.0688020  0  4                     
G 1  21946214.236       51660.327        2035.426          44.250  
G 6  24910846.759      -62221.591       -2450.259          33.250  
G 4  22952645.467      -57629.978       -2247.049          39.750  
G20  20626556.348        1692.641          76.427          45.250  
> 2014  7  3 10 11 46.1688020  0  4                     
G 1  21946252.644       51863.827        2035.491          44.250  
G 6  24910801.420      -62466.488       -2447.542          32.750  
G 4  22952603.182      -57854.655       -2246.922          40.000  
G20  20626556.576        1700.327          77.044          45.250  
> 2014  7  3 10 11 46.2688020  0  4                     
G 1  21946290.113       52067.299        2034.799          44.250  
G 6  24910752.578      -62711.424       -2449.361          33.250  
G 4  22952560.091      -58079.349       -2246.749          39.750  
G20  20626557.046        1707.994          76.786          45.250  
> 2014  7  3 10 11 46.3688020  0  4                     
G 1  21946329.122       52270.784        2035.253          44.000  
G 6  24910706.092      -62956.365       -2449.199          32.750  
G 4  22952518.449      -58304.046       -2247.648          39.750  
G20  20626557.483        1715.663          77.091          45.000  
> 2014  7  3 10 11 46.4688020  0  4                     
G 1  21946367.755       52474.265        2034.884          44.000  
G 6  24910660.642      -63201.285       -2450.304          33.250  
G 4  22952475.993      -58528.726       -2246.639          39.500  
G20  20626559.540        1723.357          77.154          45.000  
> 2014  7  3 10 11 46.5688020  0  4                     
G 1  21946406.603       52677.791        2036.060          44.000  
G 6  24910615.121      -63446.155       -2448.585          33.250  
G 4  22952433.318      -58753.375       -2245.487          39.500  
G20  20626562.142        1731.075          77.139          45.000  
> 2014  7  3 10 11 46.6688020  0  4                     
G 1  21946445.779       52881.294        2034.762          44.000  
G 6  24910566.850      -63691.062       -2449.207          33.250  
G 4  22952392.749      -58978.036       -2246.820          39.500  
G20  20626565.438        1738.785          76.335          45.000  
> 2014  7  3 10 11 46.7688020  0  4                     
G 1  21946485.443       53084.852        2036.340          44.000  
G 6  24910520.044      -63935.919       -2448.107          33.500  
G 4  22952351.113      -59202.667       -2245.859          39.500  
G20  20626568.984        1746.540          77.957          45.000  
> 2014  7  3 10 11 46.8688020  0  4                     
G 1  21946524.761       53288.404        2035.238          44.000  
G 6  24910474.654      -64180.797       -2451.174          32.750  
G 4  22952306.657      -59427.278       -2246.639          39.500  
G20  20626573.747        1754.312          77.325          45.000  
> 2014  7  3 10 11 46.9688020  0  4                     
G 1  21946563.185       53491.954        2035.564          44.000  
G 6  24910427.893      -64425.639       -2448.284          33.000  
G 4  22952265.541      -59651.900       -2245.905          39.500  
G20  20626574.767        1762.089          78.096          45.000  
> 2014  7  3 10 11 47.0688020  0  4                     
G 1  21946601.298       53695.501        2036.014          44.250  
G 6  24910381.358      -64670.497       -2447.921          32.750  
G 4  22952223.626      -59876.521       -2245.819          39.500  
G20  20626574.692        1769.860          77.994          45.000  
> 2014  7  3 10 11 47.1688020  0  4                     
G 1  21946639.296       53899.028        2035.181          44.000  
G 6  24910337.369      -64915.408       -2448.203          33.000  
G 4  22952180.190      -60101.158       -2245.899          39.250  
G20  20626575.108        1777.625          77.556          45.000  
> 2014  7  3 10 11 47.2688020  0  4                     
G 1  21946678.375       54102.570        2036.120          44.250  
G 6  24910291.209      -65160.252       -2448.352          33.250  
G 4  22952136.310      -60325.805       -2246.145          39.250  
G20  20626575.327        1785.396          77.763          45.000  
> 2014  7  3 10 11 47.3688020  0  4                     
G 1  21946716.815       54306.106        2035.411          44.000  
G 6  24910244.499      -65405.123       -2447.714          32.500  
G 4  22952091.510      -60550.401       -2247.203          39.750  
G20  20626575.614        1793.195          78.283          45.000  
> 2014  7  3 10 11 47.4688020  0  4                     
G 1  21946754.890       54509.652        2035.688          44.000  
G 6  24910199.825      -65650.013       -2448.141          33.000  
G 4  22952048.006      -60775.033       -2245.668          39.500  
G20  20626575.757        1800.976          78.245          45.250  
> 2014  7  3 10 11 47.5688020  0  4                     
G 1  21946793.553       54713.172        2036.098          44.250  
G 6  24910151.063      -65894.875       -2447.522          33.000  
G 4  22952006.851      -60999.668       -2245.591          39.750  
G20  20626575.428        1808.750          78.129          45.250  
> 2014  7  3 10 11 47.6688020  0  4                     
G 1  21946833.022       54916.723        2035.421          44.000  
G 6  24910106.660      -66139.756       -2448.778          33.000  
G 4  22951963.559      -61224.285       -2245.823          40.000  
G20  20626576.987        1816.554          77.969          45.000  
> 2014  7  3 10 11 47.7688020  0  4                     
G 1  21946872.038       55120.279        2036.045          44.250  
G 6  24910057.390      -66384.587       -2447.759          32.750  
G 4  22951919.997      -61448.899       -2245.725          39.750  
G20  20626577.631        1824.359          77.892          45.250  
> 2014  7  3 10 11 47.8688020  0  4                     
G 1  21946910.151       55323.815        2036.158          44.250  
G 6  24910013.281      -66629.471       -2448.853          33.000  
G 4  22951877.882      -61673.509       -2246.138          39.500  
G20  20626579.951        1832.171          78.967          45.250  
> 2014  7  3 10 11 47.9688020  0  4                     
G 1  21946949.537       55527.417        2035.855          44.250  
G 6  24909968.183      -66874.307       -2447.031          33.000  
G 4  22951836.076      -61898.085       -2245.872          39.750  
G20  20626582.560        1840.039          79.074          45.000  
> 2014  7  3 10 11 48.0688020  0  4                     
G 1  21946988.251       55730.989        2035.659          44.250  
G 6  24909918.844      -67119.133       -2448.067          32.750  
G 4  22951792.354      -62122.675       -2245.363          39.750  
G20  20626586.800        1847.882          78.766          45.000  
> 2014  7  3 10 11 48.1688020  0  4                     
G 1  21947027.900       55934.561        2035.298          44.250  
G 6  24909871.736      -67363.990       -2450.135          32.250  
G 4  22951748.305      -62347.262       -2246.457          39.750  
G20  20626593.165        1855.740          78.795          45.000  
> 2014  7  3 10 11 48.2688020  0  4                     
G 1  21947066.591       56138.145        2035.847          44.250  
G 6  24909826.205      -67608.798       -2447.783          32.750  
G 4  22951705.881      -62571.845       -2245.856          39.750  
G20  20626593.565        1863.603          78.442          45.250  
> 2014  7  3 10 11 48.3688020  0  4                     
G 1  21947105.290       56341.717        2035.617          44.500  
G 6  24909781.980      -67853.662       -2447.934          32.250  
G 4  22951663.752      -62796.420       -2245.249          39.500  
G20  20626592.930        1871.465          78.232          45.250  
> 2014  7  3 10 11 48.4688020  0  4                     
G 1  21947144.787       56545.295        2036.266          44.250  
G 6  24909733.725      -68098.481       -2447.348          32.750  
G 4  22951620.345      -63021.006       -2245.885          40.000  
G20  20626593.380        1879.335          79.063          45.250  
> 2014  7  3 10 11 48.5688020  0  4                     
G 1  21947183.602       56748.856        2035.597          44.250  
G 6  24909690.355      -68343.348       -2448.397          32.750  
G 4  22951578.508      -63245.605       -2246.034          39.750  
G20  20626593.403        1887.201          78.314          45.250  
> 2014  7  3 10 11 48.6688020  0  4                     
G 1  21947222.583       56952.426        2036.313          44.250  
G 6  24909641.670      -68588.182       -2447.494          32.250  
G 4  22951535.446      -63470.180       -2246.021          40.000  
G20  20626593.934        1895.069          78.695          45.250  
> 2014  7  3 10 11 48.7688020  0  4                     
G 1  21947260.006       57155.996        2035.965          44.250  
G 6  24909595.524      -68833.022       -2447.901          32.500  
G 4  22951493.892      -63694.772       -2246.101          40.000  
G20  20626595.140        1902.962          79.086          45.500  
> 2014  7  3 10 11 48.8688020  0  4                     
G 1  21947299.242       57359.577        2035.760          44.250  
G 6  24909547.731      -69077.871       -2449.278          32.500  
G 4  22951450.794      -63919.340       -2245.559          40.000  
G20  20626594.898        1910.855          78.747          45.250  
> 2014  7  3 10 11 48.9688020  0  4                     
G 1  21947336.983       57563.160        2036.210          44.500  
G 6  24909498.177      -69322.699       -2447.121          32.250  
G 4  22951406.962      -64143.913       -2245.018          40.000  
G20  20626596.772        1918.753          79.542          45.250  
> 2014  7  3 10 11 49.0688020  0  4                     
G 1  21947376.814       57766.735        2035.329          44.500  
G 6  24909451.203      -69567.531       -2448.460          31.750  
G 4  22951364.616      -64368.497       -2246.085          40.250  
G20  20626598.316        1926.658          79.786          45.250  
> 2014  7  3 10 11 49.1688020  0  4                     
G 1  21947415.806       57970.280        2035.515          44.250  
G 6  24909403.794      -69812.436       -2449.827          31.750  
G 4  22951320.772      -64593.100       -2246.526          39.500  
G20  20626600.691        1934.523          79.213          45.000  
> 2014  7  3 10 11 49.2688020  0  4                     
G 1  21947454.838       58173.850        2035.869          44.250  
G 6  24909356.717      -70057.274       -2447.016          32.000  
G 4  22951278.742      -64817.697       -2245.389          39.750  
G20  20626604.122        1942.415          79.205          45.000  
> 2014  7  3 10 11 49.3688020  0  4                     
G 1  21947493.025       58377.408        2036.365          44.250  
G 6  24909311.373      -70302.137       -2447.799          32.000  
G 4  22951236.747      -65042.295       -2245.999          40.000  
G20  20626609.466        1950.318          78.772          45.000  
> 2014  7  3 10 11 49.4688020  0  4                     
G 1  21947532.025       58581.025        2037.525          44.250  
G 6  24909258.496      -70546.918       -2448.388          31.500  
G 4  22951195.900      -65266.820       -2244.780          39.750  
G20  20626611.572        1958.270          80.273          45.250  
> 2014  7  3 10 11 49.5688020  0  4                     
G 1  21947570.023       58784.636        2035.350          44.250  
G 6  24909212.840      -70791.752       -2449.361          31.500  
G 4  22951150.476      -65491.362       -2246.370          39.750  
G20  20626611.048        1966.233          79.242          45.250  
> 2014  7  3 10 11 49.6688020  0  4                     
G 1  21947609.398       58988.254        2036.774          44.250  
G 6  24909169.354      -71036.524       -2448.530          31.750  
G 4  22951107.997      -65715.881       -2244.418          39.500  
G20  20626611.334        1974.212          80.277          45.250  
> 2014  7  3 10 11 49.7688020  0  4                     
G 1  21947648.412       59191.895        2036.404          44.250  
G 6  24909123.164      -71281.347       -2446.840          31.250  
G 4  22951065.298      -65940.390       -2244.289          39.500  
G20  20626612.497        1982.198          80.082          45.250  
> 2014  7  3 10 11 49.8688020  0  4                     
G 1  21947687.293       59395.526        2035.676          44.250  
G 6  24909073.556      -71526.131       -2448.689          30.500  
G 4  22951022.072      -66164.911       -2245.245          39.500  
G20  20626613.334        1990.190          79.585          45.250  
> 2014  7  3 10 11 49.9688020  0  4                     
G 1  21947726.554       59599.151        2036.413          44.250  
G 6  24909026.610      -71770.900       -2449.530          31.000  
G 4  22950980.605      -66389.440       -2245.519          40.000  
G20  20626613.463        1998.184          80.197          45.250  
> 2014  7  3 10 11 50.0688020  0  4                     
G 1  21947765.998       59802.730        2035.275          44.250  
G 6  24908972.528      -72015.766       -2449.512          30.500  
G 4  22950936.561      -66613.999       -2245.735          39.750  
G20  20626614.514        2006.139          78.762          45.500  
> 2014  7  3 10 11 50.1688020  0  4                     
G 1  21947803.828       60006.322        2035.964          44.500  
G 6  24908926.604      -72260.562       -2449.017          30.250  
G 4  22950894.145      -66838.553       -2245.655          39.750  
G20  20626617.070        2014.107          79.388          45.250  
> 2014  7  3 10 11 50.2688020  0  4                     
G 1  21947842.452       60209.914        2036.047          44.250  
G 6  24908880.571      -72505.396       -2447.798          31.000  
G 4  22950851.772      -67063.109       -2245.884          39.500  
G20  20626618.565        2022.076          79.826          45.250  
> 2014  7  3 10 11 50.3688020  0  4                     
G 1  21947880.932       60413.532        2036.118          44.250  
G 6  24908834.058      -72750.233       -2447.610          30.500  
G 4  22950808.623      -67287.635       -2245.149          39.750  
G20  20626622.734        2030.078          80.007          45.250  
> 2014  7  3 10 11 50.4688020  0  4                     
G 1  21947919.062       60617.115        2035.419          44.250  
G 6  24908788.343      -72995.060       -2450.557          30.750  
G 4  22950766.247      -67512.192       -2245.778          39.750  
G20  20626625.901        2038.063          79.932          45.250  
> 2014  7  3 10 11 50.5688020  0  4                     
G 1  21947957.680       60820.766        2036.591          44.250  
G 6  24908740.546      -73239.839       -2447.296          30.000  
G 4  22950722.666      -67736.675       -2244.424          39.750  
G20  20626629.332        2046.103          80.845          45.250  
> 2014  7  3 10 11 50.6688020  0  4                     
G 1  21947997.026       61024.399        2035.864          44.250  
G 6  24908692.420      -73484.634       -2448.616          30.250  
G 4  22950679.696      -67961.196       -2244.938          39.500  
G20  20626630.116        2054.143          80.022          45.250  
> 2014  7  3 10 11 50.7688020  0  4                     
G 1  21948035.795       61228.010        2036.339          44.250  
G 6  24908651.608      -73729.446       -2449.662          30.250  
G 4  22950637.123      -68185.726       -2245.654          39.500  
G20  20626629.630        2062.153          80.160          45.250  
> 2014  7  3 10 11 50.8688020  0  4                     
G 1  21948073.759       61431.638        2036.595          44.250  
G 6  24908605.516      -73974.215       -2447.647          30.250  
G 4  22950593.924      -68410.243       -2245.400          39.500  
G20  20626629.892        2070.191          80.334          45.000  
> 2014  7  3 10 11 50.9688020  0  4                     
G 1  21948113.080       61635.256        2035.852          44.250  
G 6  24908558.613      -74219.035       -2448.132          30.250  
G 4  22950549.658      -68634.763       -2245.054          39.500  
G20  20626629.671        2078.224          80.595          45.250  
> 2014  7  3 10 11 51.0688020  0  4                     
G 1  21948151.578       61838.850        2035.389          44.250  
G 6  24908509.256      -74463.870       -2448.869          30.250  
G 4  22950509.549      -68859.303       -2245.708          39.250  
G20  20626630.950        2086.240          79.712          45.250  
> 2014  7  3 10 11 51.1688020  0  4                     
G 1  21948190.106       62042.519        2037.059          44.000  
G 6  24908466.171      -74708.643       -2447.072          30.500  
G 4  22950465.672      -69083.792       -2244.932          39.500  
G20  20626631.307        2094.327          80.797          45.250  
> 2014  7  3 10 11 51.2688020  0  4                     
G 1  21948228.868       62246.184        2036.391          44.000  
G 6  24908416.841      -74953.387       -2447.985          30.250  
G 4  22950424.727      -69308.245       -2244.942          39.500  
G20  20626632.337        2102.444          81.253          45.250  
> 2014  7  3 10 11 51.3688020  0  4                     
G 1  21948267.411       62449.856        2036.512          44.250  
G 6  24908370.655      -75198.139       -2450.173          30.000  
G 4  22950380.671      -69532.730       -2245.584          39.500  
G20  20626633.143        2110.534          81.088          45.250  
> 2014  7  3 10 11 51.4688020  0  4                     
G 1  21948305.148       62653.493        2036.709          44.250  
G 6  24908320.518      -75442.932       -2447.064          29.750  
G 4  22950338.302      -69757.231       -2245.411          39.250  
G20  20626635.675        2118.613          81.093          45.000  
> 2014  7  3 10 11 51.5688020  0  4                     
G 1  21948344.424       62857.125        2035.805          44.250  
G 6  24908274.098      -75687.711       -2445.819          29.500  
G 4  22950295.980      -69981.730       -2244.820          39.750  
G20  20626637.964        2126.692          80.912          45.250  
> 2014  7  3 10 11 51.6688020  0  4                     
G 1  21948382.374       63060.760        2035.738          44.250  
G 6  24908228.476      -75932.510       -2447.875          29.500  
G 4  22950252.129      -70206.232       -2245.583          39.500  
G20  20626642.148        2134.771          80.549          45.250  
> 2014  7  3 10 11 51.7688020  0  4                     
G 1  21948421.513       63264.400        2037.010          44.000  
G 6  24908186.245      -76177.315       -2447.279          29.750  
G 4  22950210.630      -70430.723       -2244.710          39.500  
G20  20626645.724        2142.868          81.806          45.000  
> 2014  7  3 10 11 51.8688020  0  4                     
G 1  21948459.810       63468.104        2036.973          44.250  
G 6  24908140.046      -76422.020       -2449.769          30.250  
G 4  22950167.616      -70655.165       -2245.028          39.500  
G20  20626647.725        2151.024          80.792          45.250  
> 2014  7  3 10 11 51.9688020  0  4                     
G 1  21948499.294       63671.782        2036.810          44.250  
G 6  24908093.992      -76666.754       -2447.000          30.000  
G 4  22950124.907      -70879.615       -2243.645          39.750  
G20  20626647.661        2159.171          80.943          45.500  
> 2014  7  3 10 11 52.0688020  0  4                     
G 1  21948537.756       63875.460        2037.099          44.250  
G 6  24908046.400      -76911.513       -2447.478          31.000  
G 4  22950082.901      -71104.078       -2243.723          39.750  
G20  20626648.117        2167.307          81.219          45.250  
> 2014  7  3 10 11 52.1688020  0  4                     
G 1  21948574.910       64079.133        2037.343          44.250  
G 6  24908003.445      -77156.291       -2448.103          30.750  
G 4  22950038.202      -71328.540       -2244.104          39.750  
G20  20626648.071        2175.455          81.301          45.250  
> 2014  7  3 10 11 52.2688020  0  4                     
G 1  21948613.463       64282.807        2037.073          44.250  
G 6  24907960.004      -77401.015       -2446.177          30.250  
G 4  22949994.284      -71553.002       -2245.296          39.750  
G20  20626649.161        2183.607          81.234          45.250  
> 2014  7  3 10 11 52.3688020  0  4                     
G 1  21948651.741       64486.459        2036.605          44.000  
G 6  24907912.686      -77645.808       -2448.388          31.000  
G 4  22949951.617      -71777.473       -2244.721          39.500  
G20  20626649.987        2191.762          81.412          45.250  
> 2014  7  3 10 11 52.4688020  0  4                     
G 1  21948691.379       64690.115        2036.293          44.000  
G 6  24907863.127      -77890.594       -2447.574          30.500  
G 4  22949910.891      -72001.949       -2243.630          39.500  
G20  20626650.579        2199.893          81.692          45.250  
> 2014  7  3 10 11 52.5688020  0  4                     
G 1  21948730.861       64893.776        2036.480          44.000  
G 6  24907813.029      -78135.369       -2448.100          30.750  
G 4  22949866.563      -72226.433       -2244.741          39.500  
G20  20626651.664        2208.043          81.741          45.250  
> 2014  7  3 10 11 52.6688020  0  4                     
G 1  21948768.574       65097.440        2037.761          44.000  
G 6  24907769.120      -78380.130       -2445.385          30.500  
G 4  22949824.451      -72450.895       -2244.108          39.750  
G20  20626654.381        2216.199          81.972          45.250  
> 2014  7  3 10 11 52.7688020  0  4                     
G 1  21948807.488       65301.124        2036.815          44.000  
G 6  24907724.459      -78624.873       -2447.400          30.500  
G 4  22949780.239      -72675.347       -2243.841          39.250  
G20  20626658.197        2224.389          82.114          45.000  
> 2014  7  3 10 11 52.8688020  0  4                     
G 1  21948846.429       65504.805        2036.457          44.000  
G 6  24907677.718      -78869.618       -2448.543          31.000  
G 4  22949736.330      -72899.779       -2244.943          39.250  
G20  20626662.357        2232.584          81.926          45.250  
> 2014  7  3 10 11 52.9688020  0  4                     
G 1  21948885.561       65708.474        2036.356          44.000  
G 6  24907632.189      -79114.389       -2448.046          31.000  
G 4  22949693.373      -73124.232       -2244.419          39.000  
G20  20626666.227        2240.775          82.325          45.000  
> 2014  7  3 10 11 53.0688020  0  4                     
G 1  21948923.065       65912.148        2036.108          44.000  
G 6  24907584.062      -79359.160       -2447.860          31.000  
G 4  22949650.940      -73348.701       -2245.452          39.000  
G20  20626666.449        2248.953          81.791          45.000  
> 2014  7  3 10 11 53.1688020  0  4                     
G 1  21948962.157       66115.759        2035.837          44.000  
G 6  24907539.004      -79603.961       -2448.964          31.500  
G 4  22949607.587      -73573.205       -2243.878          39.250  
G20  20626666.050        2257.088          81.785          45.000  
> 2014  7  3 10 11 53.2688020  0  4                     
G 1  21949000.776       66319.431        2037.282          44.000  
G 6  24907489.906      -79848.719       -2446.329          30.500  
G 4  22949563.415      -73797.669       -2244.906          39.000  
G20  20626667.402        2265.284          82.716          45.000  
> 2014  7  3 10 11 53.3688020  0  4                     
G 1  21949039.711       66523.101        2036.659          43.750  
G 6  24907442.842      -80093.499       -2447.491          31.250  
G 4  22949521.777      -74022.116       -2244.652          39.000  
G20  20626666.616        2273.485          81.487          45.250  
> 2014  7  3 10 11 53.4688020  0  4                     
G 1  21949078.628       66726.759        2036.179          44.000  
G 6  24907397.534      -80338.270       -2448.053          31.000  
G 4  22949479.567      -74246.588       -2244.489          39.250  
G20  20626667.294        2281.682          82.017          45.250  
> 2014  7  3 10 11 53.5688020  0  4                     
G 1  21949117.185       66930.427        2036.682          44.000  
G 6  24907352.346      -80583.038       -2447.452          31.000  
G 4  22949435.970      -74471.041       -2243.992          39.250  
G20  20626668.298        2289.886          81.997          45.250  
> 2014  7  3 10 11 53.6688020  0  4                     
G 1  21949156.438       67134.102        2036.342          44.000  
G 6  24907303.926      -80827.777       -2446.174          30.750  
G 4  22949395.883      -74695.485       -2244.912          39.250  
G20  20626669.641        2298.114          82.066          45.250  
> 2014  7  3 10 11 53.7688020  0  4                     
G 1  21949193.729       67337.755        2037.098          44.000  
G 6  24907261.100      -81072.582       -2447.995          30.750  
G 4  22949352.848      -74919.955       -2245.017          39.000  
G20  20626671.528        2306.307          82.043          45.250  
> 2014  7  3 10 11 53.8688020  0  4                     
G 1  21949233.085       67541.416        2036.474          44.000  
G 6  24907215.953      -81317.354       -2447.626          32.000  
G 4  22949308.985      -75144.429       -2245.958          39.500  
G20  20626674.588        2314.539          82.494          45.250  
> 2014  7  3 10 11 53.9688020  0  4                     
G 1  21949272.112       67745.080        2037.656          44.000  
G 6  24907170.709      -81562.101       -2448.304          31.500  
G 4  22949267.615      -75368.879       -2244.193          39.500  
G20  20626677.810        2322.748          82.326          45.250  
> 2014  7  3 10 11 54.0688020  0  4                     
G 1  21949310.418       67948.759        2036.261          43.750  
G 6  24907122.836      -81806.874       -2446.395          31.750  
G 4  22949227.512      -75593.315       -2245.042          39.250  
G20  20626680.727        2330.998          82.361          45.250  
> 2014  7  3 10 11 54.1688020  0  4                     
G 1  21949349.352       68152.434        2036.490          43.750  
G 6  24907077.560      -82051.643       -2446.564          31.500  
G 4  22949183.285      -75817.772       -2244.969          39.750  
G20  20626684.741        2339.248          82.304          45.000  
> 2014  7  3 10 11 54.2688020  0  4                     
G 1  21949387.993       68356.138        2036.722          44.000  
G 6  24907029.239      -82296.384       -2447.792          31.750  
G 4  22949140.731      -76042.187       -2243.618          39.250  
G20  20626684.373        2347.519          82.572          45.000  
> 2014  7  3 10 11 54.3688020  0  4                     
G 1  21949427.681       68559.820        2036.954          44.250  
G 6  24906981.722      -82541.123       -2447.781          32.500  
G 4  22949097.557      -76266.607       -2243.288          39.750  
G20  20626685.086        2355.785          82.783          45.000  
> 2014  7  3 10 11 54.4688020  0  4                     
G 1  21949465.560       68763.489        2037.285          44.000  
G 6  24906933.631      -82785.871       -2445.520          31.500  
G 4  22949055.968      -76491.051       -2243.750          39.500  
G20  20626684.310        2364.054          82.896          45.250  
> 2014  7  3 10 11 54.5688020  0  4                     
G 1  21949505.701       68967.199        2036.989          44.000  
G 6  24906884.055      -83030.593       -2445.610          31.750  
G 4  22949013.911      -76715.466       -2244.007          39.500  
G20  20626684.743        2372.349          82.862          45.000  
> 2014  7  3 10 11 54.6688020  0  4                     
G 1  21949545.465       69170.977        2037.935          44.000  
G 6  24906836.895      -83275.275       -2446.267          31.500  
G 4  22948970.762      -76939.796       -2243.307          39.500  
G20  20626685.462        2380.723          84.330          45.000  
> 2014  7  3 10 11 54.7688020  0  4                     
G 1  21949583.013       69374.736        2037.685          43.750  
G 6  24906793.713      -83519.957       -2445.901          32.000  
G 4  22948928.842      -77164.166       -2244.113          39.500  
G20  20626685.205        2389.081          84.055          45.000  
> 2014  7  3 10 11 54.8688020  0  4                     
G 1  21949621.444       69578.443        2037.184          44.000  
G 6  24906746.838      -83764.658       -2446.595          32.000  
G 4  22948886.851      -77388.565       -2245.020          39.500  
G20  20626685.866        2397.392          82.770          45.000  
> 2014  7  3 10 11 54.9688020  0  4                     
G 1  21949659.415       69782.142        2037.289          44.000  
G 6  24906703.684      -84009.399       -2446.812          31.750  
G 4  22948843.378      -77612.978       -2244.203          39.500  
G20  20626686.778        2405.698          82.852          45.250  
> 2014  7  3 10 11 55.0688020  0  4                     
G 1  21949698.418       69985.875        2037.615          44.250  
G 6  24906657.644      -84254.122       -2446.227          32.250  
G 4  22948800.711      -77837.365       -2242.835          39.500  
G20  20626688.864        2414.041          82.938          45.000  
> 2014  7  3 10 11 55.1688020  0  4                     
G 1  21949737.760       70189.559        2037.007          44.250  
G 6  24906610.472      -84498.875       -2445.420          32.500  
G 4  22948756.525      -78061.792       -2243.840          39.250  
G20  20626692.551        2422.355          83.342          45.250  
> 2014  7  3 10 11 55.2688020  0  4                     
G 1  21949776.379       70393.293        2036.999          43.750  
G 6  24906562.111      -84743.595       -2448.424          32.500  
G 4  22948714.472      -78286.174       -2243.859          39.000  
G20  20626696.871        2430.699          83.115          44.750  
> 2014  7  3 10 11 55.3688020  0  4                     
G 1  21949816.703       70597.017        2037.028          44.000  
G 6  24906518.996      -84988.281       -2447.007          32.500  
G 4  22948671.819      -78510.559       -2243.875          39.500  
G20  20626701.804        2439.057          83.434          45.000  
> 2014  7  3 10 11 55.4688020  0  4                     
G 1  21949855.583       70800.770        2037.716          44.000  
G 6  24906470.776      -85232.983       -2446.563          32.000  
G 4  22948629.408      -78734.910       -2243.918          39.500  
G20  20626702.742        2447.454          84.229          45.000  
> 2014  7  3 10 11 55.5688020  0  4                     
G 1  21949894.097       71004.540        2037.919          44.000  
G 6  24906422.308      -85477.678       -2446.276          32.250  
G 4  22948585.483      -78959.267       -2243.761          39.750  
G20  20626702.810        2455.840          83.953          44.750  
> 2014  7  3 10 11 55.6688020  0  4                     
G 1  21949932.139       71208.280        2037.144          44.000  
G 6  24906376.641      -85722.360       -2446.245          32.250  
G 4  22948542.540      -79183.623       -2243.375          39.500  
G20  20626702.643        2464.229          84.251          45.250  
> 2014  7  3 10 11 55.7688020  0  4                     
G 1  21949971.054       71412.050        2037.448          44.000  
G 6  24906334.354      -85967.012       -2444.941          32.250  
G 4  22948500.176      -79407.960       -2243.370          39.250  
G20  20626703.585        2472.653          83.769          45.000  
> 2014  7  3 10 11 55.8688020  0  4                     
G 1  21950010.502       71615.794        2037.030          44.000  
G 6  24906286.100      -86211.741       -2447.321          32.750  
G 4  22948458.696      -79632.315       -2242.895          39.500  
G20  20626704.306        2481.047          83.281          45.250  
> 2014  7  3 10 11 55.9688020  0  4                     
G 1  21950048.901       71819.548        2037.808          44.000  
G 6  24906239.944      -86456.406       -2446.350          32.500  
G 4  22948415.802      -79856.681       -2242.522          39.500  
G20  20626704.797        2489.460          84.384          45.000  
> 2014  7  3 10 11 56.0688020  0  4                     
G 1  21950087.252       72023.309        2037.603          44.000  
G 6  24906193.274      -86701.087       -2445.859          32.750  
G 4  22948374.534      -80081.023       -2242.109          39.250  
G20  20626706.278        2497.882          84.566          45.000  
> 2014  7  3 10 11 56.1688020  0  4                     
G 1  21950126.120       72227.057        2037.833          43.750  
G 6  24906144.655      -86945.807       -2447.650          32.500  
G 4  22948330.916      -80305.381       -2242.983          39.750  
G20  20626707.422        2506.292          83.915          45.250  
> 2014  7  3 10 11 56.2688020  0  4                     
G 1  21950164.600       72430.735        2036.803          43.750  
G 6  24906100.900      -87190.541       -2448.196          32.500  
G 4  22948286.852      -80529.803       -2243.281          39.750  
G20  20626708.970        2514.646          83.215          45.000  
> 2014  7  3 10 11 56.3688020  0  4                     
G 1  21950204.318       72634.383        2036.624          44.000  
G 6  24906059.906      -87435.348       -2448.875          32.250  
G 4  22948245.626      -80754.263       -2244.071          39.500  
G20  20626712.238        2522.974          83.248          45.000  
> 2014  7  3 10 11 56.4688020  0  4                     
G 1  21950242.892       72838.118        2037.542          44.250  
G 6  24906011.286      -87680.062       -2446.121          32.000  
G 4  22948203.004      -80978.646       -2243.255          39.250  
G20  20626715.289        2531.382          84.415          45.000  
> 2014  7  3 10 11 56.5688020  0  4                     
G 1  21950281.485       73041.839        2036.882          44.000  
G 6  24905963.878      -87924.799       -2446.648          32.500  
G 4  22948160.582      -81203.027       -2244.500          39.500  
G20  20626720.721        2539.789          83.498          45.000  
> 2014  7  3 10 11 56.6688020  0  4                     
G 1  21950320.151       73245.563        2037.345          44.000  
G 6  24905916.296      -88169.507       -2447.698          32.750  
G 4  22948118.361      -81427.385       -2243.671          39.500  
G20  20626721.324        2548.222          84.399          45.250  
> 2014  7  3 10 11 56.7688020  0  4                     
G 1  21950359.265       73449.341        2037.763          44.250  
G 6  24905871.665      -88414.168       -2448.747          32.250  
G 4  22948074.884      -81651.727       -2243.785          39.750  
G20  20626721.732        2556.682          83.510          45.000  
> 2014  7  3 10 11 56.8688020  0  4                     
G 1  21950398.549       73653.096        2037.877          44.250  
G 6  24905826.709      -88658.868       -2446.945          32.500  
G 4  22948031.445      -81876.071       -2242.693          39.250  
G20  20626722.107        2565.153          85.680          45.250  
> 2014  7  3 10 11 56.9688020  0  4                     
G 1  21950436.798       73856.885        2037.772          44.000  
G 6  24905778.594      -88903.520       -2446.598          32.500  
G 4  22947989.353      -82100.376       -2242.844          39.500  
G20  20626722.600        2573.636          85.113          45.000  
> 2014  7  3 10 11 57.0688020  0  4                     
G 1  21950476.320       74060.619        2037.597          44.000  
G 6  24905729.614      -89148.221       -2445.970          31.500  
G 4  22947946.653      -82324.740       -2244.059          40.000  
G20  20626722.960        2582.091          84.384          45.250  
> 2014  7  3 10 11 57.1688020  0  4                     
G 1  21950514.171       74264.366        2037.302          44.000  
G 6  24905682.147      -89392.942       -2447.481          31.750  
G 4  22947904.904      -82549.099       -2244.692          39.500  
G20  20626723.438        2590.546          84.424          45.000  
> 2014  7  3 10 11 57.2688020  0  4                     
G 1  21950553.460       74468.130        2037.401          44.000  
G 6  24905633.844      -89637.601       -2446.733          31.500  
G 4  22947862.083      -82773.431       -2243.423          39.750  
G20  20626724.888        2599.033          84.429          45.250  
> 2014  7  3 10 11 57.3688020  0  4                     
G 1  21950592.463       74671.884        2037.328          44.250  
G 6  24905584.287      -89882.298       -2448.322          31.750  
G 4  22947819.163      -82997.778       -2243.425          39.750  
G20  20626726.500        2607.503          84.670          45.250  
> 2014  7  3 10 11 57.4688020  0  4                     
G 1  21950630.703       74875.644        2037.617          44.000  
G 6  24905535.733      -90126.973       -2445.315          32.250  
G 4  22947776.474      -83222.117       -2243.554          40.000  
G20  20626729.200        2615.992          84.802          45.000  
> 2014  7  3 10 11 57.5688020  0  4                     
G 1  21950669.386       75079.414        2037.443          44.000  
G 6  24905486.679      -90371.649       -2445.342          31.500  
G 4  22947734.501      -83446.436       -2242.385          39.500  
G20  20626733.056        2624.511          85.195          45.000  
> 2014  7  3 10 11 57.6688020  0  4                     
G 1  21950708.386       75283.187        2038.079          44.000  
G 6  24905441.755      -90616.319       -2444.685          32.000  
G 4  22947693.203      -83670.757       -2242.533          39.750  
G20  20626738.156        2633.029          86.209          45.250  
> 2014  7  3 10 11 57.7688020  0  4                     
G 1  21950746.371       75486.976        2037.660          43.750  
G 6  24905395.607      -90860.976       -2445.140          31.750  
G 4  22947650.997      -83895.079       -2242.806          39.750  
G20  20626739.430        2641.550          85.951          45.000  
> 2014  7  3 10 11 57.8688020  0  4                     
G 1  21950784.987       75690.758        2037.276          44.000  
G 6  24905349.528      -91105.667       -2447.264          31.750  
G 4  22947605.827      -84119.383       -2243.995          39.750  
G20  20626739.634        2650.082          84.839          45.000  
> 2014  7  3 10 11 57.9688020  0  4                     
G 1  21950824.118       75894.485        2037.076          44.000  
G 6  24905303.485      -91350.385       -2447.131          31.750  
G 4  22947561.323      -84343.753       -2244.198          39.500  
G20  20626739.622        2658.571          84.788          45.000  
> 2014  7  3 10 11 58.0688020  0  4                     
G 1  21950863.093       76098.251        2037.417          44.000  
G 6  24905254.959      -91595.050       -2446.243          31.500  
G 4  22947520.747      -84568.076       -2243.840          39.750  
G20  20626740.352        2667.092          85.105          45.250  
> 2014  7  3 10 11 58.1688020  0  4                     
G 1  21950901.242       76302.037        2038.277          44.000  
G 6  24905206.652      -91839.741       -2446.745          31.750  
G 4  22947478.177      -84792.393       -2243.677          40.000  
G20  20626740.049        2675.638          85.474          45.250  
> 2014  7  3 10 11 58.2688020  0  4                     
G 1  21950940.386       76505.793        2038.086          44.000  
G 6  24905159.692      -92084.420       -2447.328          31.500  
G 4  22947433.759      -85016.708       -2242.361          39.500  
G20  20626740.248        2684.171          85.665          45.250  
> 2014  7  3 10 11 58.3688020  0  4                     
G 1  21950978.977       76709.548        2037.246          44.000  
G 6  24905111.730      -92329.108       -2446.573          31.500  
G 4  22947391.637      -85241.033       -2242.821          40.000  
G20  20626741.861        2692.696          85.148          45.250  
> 2014  7  3 10 11 58.4688020  0  4                     
G 1  21951018.334       76913.327        2038.199          44.250  
G 6  24905065.849      -92573.774       -2447.115          31.000  
G 4  22947349.433      -85465.374       -2243.604          39.750  
G20  20626744.010        2701.252          85.704          45.000  
> 2014  7  3 10 11 58.5688020  0  4                     
G 1  21951058.647       77117.101        2037.833          44.000  
G 6  24905017.330      -92818.439       -2445.346          31.000  
G 4  22947308.532      -85689.677       -2242.996          40.000  
G20  20626746.941        2709.810          85.775          45.250  
> 2014  7  3 10 11 58.6688020  0  4                     
G 1  21951097.817       77320.884        2038.135          44.000  
G 6  24904971.928      -93063.120       -2445.848          31.250  
G 4  22947266.505      -85913.971       -2243.155          40.000  
G20  20626751.149        2718.392          86.051          45.000  
> 2014  7  3 10 11 58.7688020  0  4                     
G 1  21951135.569       77524.673        2038.411          44.000  
G 6  24904924.863      -93307.801       -2448.390          31.000  
G 4  22947224.951      -86138.279       -2243.237          39.750  
G20  20626756.316        2726.962          85.602          45.000  
> 2014  7  3 10 11 58.8688020  0  4                     
G 1  21951175.070       77728.453        2037.312          44.000  
G 6  24904877.241      -93552.431       -2447.175          31.250  
G 4  22947182.223      -86362.586       -2243.289          39.750  
G20  20626757.945        2735.547          85.694          45.250  
> 2014  7  3 10 11 58.9688020  0  4                     
G 1  21951214.575       77932.257        2038.109          44.000  
G 6  24904830.585      -93797.100       -2446.060          30.750  
G 4  22947139.990      -86586.868       -2243.092          39.750  
G20  20626758.638        2744.155          86.066          45.250  
> 2014  7  3 10 11 59.0688020  0  4                     
G 1  21951252.489       78136.032        2038.243          44.000  
G 6  24904779.266      -94041.806       -2446.504          30.750  
G 4  22947096.825      -86811.179       -2243.524          40.250  
G20  20626758.635        2752.730          84.885          45.250  
> 2014  7  3 10 11 59.1688020  0  4                     
G 1  21951291.765       78339.790        2038.349          44.000  
G 6  24904729.485      -94286.465       -2446.954          31.250  
G 4  22947053.217      -87035.491       -2241.572          39.500  
G20  20626757.959        2761.303          86.282          45.000  
> 2014  7  3 10 11 59.2688020  0  4                     
G 1  21951330.685       78543.559        2037.978          44.000  
G 6  24904686.502      -94531.147       -2446.885          31.250  
G 4  22947012.037      -87259.817       -2243.856          39.750  
G20  20626758.183        2769.894          86.300          45.250  
> 2014  7  3 10 11 59.3688020  0  4                     
G 1  21951368.966       78747.289        2037.216          44.000  
G 6  24904638.988      -94775.857       -2446.594          31.250  
G 4  22946968.730      -87484.143       -2242.083          39.750  
G20  20626758.983        2778.456          86.059          45.250  
> 2014  7  3 10 11 59.4688020  0  4                     
G 1  21951408.059       78951.054        2037.883          44.000  
G 6  24904589.375      -95020.531       -2445.011          31.000  
G 4  22946924.575      -87708.481       -2242.906          39.750  
G20  20626759.471        2787.039          85.504          45.000  
> 2014  7  3 10 11 59.5688020  0  4                     
G 1  21951446.752       79154.862        2038.339          44.000  
G 6  24904545.313      -95265.244       -2446.021          31.250  
G 4  22946881.562      -87932.760       -2241.751          39.750  
G20  20626761.102        2795.676          85.935          45.000  
> 2014  7  3 10 11 59.6688020  0  4                     
G 1  21951486.093       79358.687        2038.578          44.000  
G 6  24904499.571      -95509.854       -2446.984          31.250  
G 4  22946839.201      -88157.003       -2242.781          39.750  
G20  20626764.191        2804.342          87.183          45.250  
> 2014  7  3 10 11 59.7688020  0  4                     
G 1  21951523.990       79562.515        2038.193          44.250  
G 6  24904455.364      -95754.461       -2445.618          30.750  
G 4  22946797.899      -88381.268       -2242.247          39.500  
G20  20626767.478        2813.007          86.288          45.250  
> 2014  7  3 10 11 59.8688020  0  4                     
G 1  21951562.185       79766.335        2038.320          44.000  
G 6  24904409.083      -95999.092       -2446.440          31.000  
G 4  22946754.731      -88605.515       -2243.213          40.000  
G20  20626771.124        2821.682          87.012          45.250  
> 2014  7  3 10 11 59.9688020  0  4                     
G 1  21951600.048       79970.165        2037.790          44.000  
G 6  24904361.486      -96243.728       -2446.486          31.000  
G 4  22946711.149      -88829.768       -2243.072          40.000  
G20  20626776.802        2830.353          86.182          45.000  
> 2014  7  3 10 12  0.0688020  0  4                     
G 1  21951637.944       80173.899        2037.558          44.000  
G 6  24904315.784      -96488.424       -2443.960          31.250  
G 4  22946668.073      -89054.107       -2243.543          39.750  
G20  20626776.039        2838.942          86.198          45.000  
> 2014  7  3 10 12  0.1688020  0  4                     
G 1  21951675.785       80377.677        2037.861          44.000  
G 6  24904270.609      -96733.135       -2446.210          31.000  
G 4  22946626.968      -89278.403       -2243.255          40.000  
G20  20626776.205        2847.591          87.073          45.000  
> 2014  7  3 10 12  0.2688020  0  4                     
G 1  21951715.081       80581.480        2038.018          44.000  
G 6  24904222.446      -96977.793       -2447.247          31.000  
G 4  22946585.191      -89502.691       -2243.521          40.000  
G20  20626776.701        2856.255          86.651          45.250  
> 2014  7  3 10 12  0.3688020  0  4                     
G 1  21951753.870       80785.260        2038.093          44.000  
G 6  24904176.535      -97222.434       -2445.713          31.250  
G 4  22946541.087      -89726.974       -2242.639          39.500  
G20  20626776.718        2864.907          86.450          45.250  
> 2014  7  3 10 12  0.4688020  0  4                     
G 1  21951792.611       80989.064        2038.510          44.000  
G 6  24904133.357      -97467.084       -2445.852          31.000  
G 4  22946497.891      -89951.256       -2242.830          39.750  
G20  20626777.140        2873.584          87.089          45.000  
> 2014  7  3 10 12  0.5688020  0  4                     
G 1  21951831.112       81192.906        2038.304          43.750  
G 6  24904086.032      -97711.704       -2448.170          31.500  
G 4  22946455.139      -90175.494       -2242.154          40.250  
G20  20626778.533        2882.302          86.841          45.250  
> 2014  7  3 10 12  0.6688020  0  4                     
G 1  21951870.451       81396.713        2038.535          43.750  
G 6  24904040.730      -97956.347       -2445.639          32.000  
G 4  22946410.734      -90399.748       -2241.435          40.000  
G20  20626780.255        2890.998          86.892          45.000  
> 2014  7  3 10 12  0.7688020  0  4                     
G 1  21951909.175       81600.529        2037.490          43.750  
G 6  24903994.124      -98200.999       -2446.880          31.500  
G 4  22946367.673      -90624.019       -2242.730          39.750  
G20  20626783.367        2899.700          86.360          45.000  
> 2014  7  3 10 12  0.8688020  0  4                     
G 1  21951948.461       81804.331        2037.646          44.000  
G 6  24903947.189      -98445.633       -2448.698          31.500  
G 4  22946322.783      -90848.283       -2242.974          39.750  
G20  20626786.792        2908.410          86.637          45.000  
> 2014  7  3 10 12  0.9688020  0  4                     
G 1  21951987.922       82008.131        2037.638          44.000  
G 6  24903900.709      -98690.308       -2444.558          31.500  
G 4  22946279.123      -91072.554       -2242.650          40.000  
G20  20626791.265        2917.107          87.621          45.000  
> 2014  7  3 10 12  1.0688020  0  4                     
G 1  21952026.937       82211.908        2037.655          44.000  
G 6  24903853.425      -98934.963       -2446.457          31.750  
G 4  22946236.964      -91296.850       -2242.653          40.000  
G20  20626794.203        2925.779          86.337          45.250  
> 2014  7  3 10 12  1.1688020  0  4                     
G 1  21952066.158       82415.688        2037.749          44.000  
G 6  24903808.147      -99179.679       -2447.648          31.250  
G 4  22946193.094      -91521.148       -2243.361          39.750  
G20  20626794.458        2934.468          86.259          45.000  
> 2014  7  3 10 12  1.2688020  0  4                     
G 1  21952103.751       82619.432        2037.427          44.000  
G 6  24903760.155      -99424.381       -2446.824          31.750  
G 4  22946151.688      -91745.465       -2243.535          39.750  
G20  20626794.536        2943.128          86.902          45.000  
> 2014  7  3 10 12  1.3688020  0  4                     
G 1  21952143.779       82823.193        2037.114          44.000  
G 6  24903714.758      -99669.090       -2446.220          32.000  
G 4  22946110.066      -91969.786       -2242.942          40.000  
G20  20626794.821        2951.810          86.331          45.250  
> 2014  7  3 10 12  1.4688020  0  4                     
G 1  21952183.568       83026.960        2037.951          44.000  
G 6  24903666.590      -99913.745       -2446.674          31.750  
G 4  22946067.203      -92194.081       -2242.575          39.750  
G20  20626794.954        2960.504          87.522          45.250  
> 2014  7  3 10 12  1.5688020  0  4                     
G 1  21952222.098       83230.758        2037.326          44.000  
G 6  24903621.779     -100158.413       -2447.042          32.250  
G 4  22946024.548      -92418.350       -2244.030          39.500  
G20  20626795.297        2969.221          86.458          45.000  
> 2014  7  3 10 12  1.6688020  0  4                     
G 1  21952260.739       83434.503        2037.513          44.000  
G 6  24903576.967     -100403.145       -2446.624          32.500  
G 4  22945982.964      -92642.678       -2243.025          39.750  
G20  20626796.042        2977.899          86.541          45.000  
> 2014  7  3 10 12  1.7688020  0  4                     
G 1  21952298.811       83638.273        2037.595          44.000  
G 6  24903532.379     -100647.827       -2446.417          32.250  
G 4  22945941.786      -92866.958       -2242.365          40.000  
G20  20626797.246        2986.613          86.881          45.000  
> 2014  7  3 10 12  1.8688020  0  4                     
G 1  21952338.361       83842.031        2037.605          44.000  
G 6  24903485.118     -100892.529       -2445.494          32.500  
G 4  22945899.299      -93091.286       -2244.460          40.250  
G20  20626797.883        2995.323          86.674          45.000  
> 2014  7  3 10 12  1.9688020  0  4                     
G 1  21952377.276       84045.780        2037.301          44.000  
G 6  24903442.638     -101137.259       -2446.734          32.000  
G 4  22945857.897      -93315.597       -2243.659          39.750  
G20  20626800.231        3004.017          86.766          45.000  
> 2014  7  3 10 12  2.0688020  0  4                     
G 1  21952415.980       84249.512        2037.337          43.750  
G 6  24903394.055     -101381.946       -2444.884          32.250  
G 4  22945816.388      -93539.932       -2244.100          40.000  
G20  20626802.952        3012.713          87.017          45.000  
> 2014  7  3 10 12  2.1688020  0  4                     
G 1  21952454.372       84453.318        2037.907          44.000  
G 6  24903346.090     -101626.626       -2445.210          32.500  
G 4  22945774.178      -93764.204       -2243.245          39.750  
G20  20626807.429        3021.467          87.976          45.000  
> 2014  7  3 10 12  2.2688020  0  4                     
G 1  21952493.292       84657.117        2038.002          44.000  
G 6  24903298.376     -101871.311       -2446.730          31.750  
G 4  22945728.449      -93988.437       -2242.658          40.000  
G20  20626812.668        3030.227          87.498          45.000  
> 2014  7  3 10 12  2.3688020  0  4                     
G 1  21952531.734       84860.907        2037.883          44.000  
G 6  24903252.064     -102115.985       -2447.208          32.000  
G 4  22945685.262      -94212.749       -2244.052          40.000  
G20  20626813.362        3038.982          87.853          45.000  
> 2014  7  3 10 12  2.4688020  0  4                     
G 1  21952571.063       85064.715        2038.178          44.000  
G 6  24903204.870     -102360.613       -2445.105          32.250  
G 4  22945643.333      -94436.990       -2242.594          40.000  
G20  20626813.304        3047.760          87.754          45.000  
> 2014  7  3 10 12  2.5688020  0  4                     
G 1  21952609.871       85268.551        2039.138          44.000  
G 6  24903158.276     -102605.242       -2445.803          32.750  
G 4  22945601.720      -94661.206       -2241.365          40.250  
G20  20626812.731        3056.573          88.139          45.000  
> 2014  7  3 10 12  2.6688020  0  4                     
G 1  21952649.379       85472.360        2037.717          44.000  
G 6  24903113.455     -102849.925       -2447.498          32.750  
G 4  22945560.777      -94885.462       -2243.226          40.250  
G20  20626813.566        3065.364          87.333          45.250  
> 2014  7  3 10 12  2.7688020  0  4                     
G 1  21952688.211       85676.149        2038.383          44.000  
G 6  24903067.474     -103094.587       -2446.548          33.000  
G 4  22945518.494      -95109.753       -2241.901          40.250  
G20  20626813.457        3074.142          88.121          45.000  
> 2014  7  3 10 12  2.8688020  0  4                     
G 1  21952727.152       85879.953        2038.100          44.000  
G 6  24903020.030     -103339.238       -2445.259          32.750  
G 4  22945475.609      -95333.997       -2241.488          40.250  
G20  20626814.992        3082.938          88.330          45.000  
> 2014  7  3 10 12  2.9688020  0  4                     
G 1  21952766.060       86083.753        2038.040          44.000  
G 6  24902974.708     -103583.904       -2446.517          33.000  
G 4  22945432.127      -95558.262       -2242.303          40.250  
G20  20626816.647        3091.728          88.022          45.000  
> 2014  7  3 10 12  3.0688020  0  4                     
G 1  21952804.693       86287.512        2037.420          44.250  
G 6  24902926.406     -103828.602       -2447.625          32.750  
G 4  22945390.500      -95782.564       -2243.571          40.250  
G20  20626818.095        3100.489          87.336          45.250  
> 2014  7  3 10 12  3.1688020  0  4                     
G 1  21952843.967       86491.312        2037.844          43.750  
G 6  24902878.362     -104073.282       -2446.518          32.750  
G 4  22945347.431      -96006.822       -2242.130          40.000  
G20  20626820.891        3109.299          88.381          45.000  
> 2014  7  3 10 12  3.2688020  0  4                     
G 1  21952881.423       86695.143        2038.300          44.000  
G 6  24902829.556     -104317.897       -2445.750          33.250  
G 4  22945304.809      -96231.041       -2241.907          40.250  
G20  20626825.700        3118.131          88.628          44.750  
> 2014  7  3 10 12  3.3688020  0  4                     
G 1  21952919.783       86898.942        2038.129          44.000  
G 6  24902782.216     -104562.574       -2446.992          33.250  
G 4  22945261.844      -96455.291       -2241.975          40.250  
G20  20626831.143        3126.955          88.480          45.000  
> 2014  7  3 10 12  3.4688020  0  4                     
G 1  21952958.649       87102.735        2038.551          44.000  
G 6  24902734.700     -104807.252       -2445.244          33.000  
G 4  22945217.419      -96679.583       -2243.130          40.000  
G20  20626831.554        3135.760          88.536          45.250  
> 2014  7  3 10 12  3.5688020  0  4                     
G 1  21952996.711       87306.537        2037.777          44.000  
G 6  24902687.435     -105051.907       -2445.711          33.750  
G 4  22945174.264      -96903.816       -2242.680          40.000  
G20  20626831.759        3144.593          88.795          45.000  
> 2014  7  3 10 12  3.6688020  0  4                     
G 1  21953034.432       87510.360        2038.449          44.000  
G 6  24902642.591     -105296.549       -2446.659          33.500  
G 4  22945132.070      -97128.053       -2242.748          40.000  
G20  20626832.123        3153.450          88.760          45.000  
> 2014  7  3 10 12  3.7688020  0  4                     
G 1  21953072.562       87714.247        2037.503          44.000  
G 6  24902597.996     -105541.117       -2445.617          33.250  
G 4  22945088.688      -97352.214       -2242.553          39.750  
G20  20626833.067        3162.360          88.356          45.250  
> 2014  7  3 10 12  3.8688020  0  4                     
G 1  21953111.101       87918.106        2038.723          43.750  
G 6  24902552.463     -105785.763       -2446.242          33.500  
G 4  22945046.315      -97576.406       -2241.344          40.250  
G20  20626833.928        3171.259          88.367          45.000  
> 2014  7  3 10 12  3.9688020  0  4                     
G 1  21953149.836       88121.958        2038.378          43.750  
G 6  24902503.396     -106030.364       -2446.301          33.500  
G 4  22945002.415      -97800.615       -2242.016          40.000  
G20  20626835.818        3180.162          89.230          45.250  
> 2014  7  3 10 12  4.0688020  0  4                     
G 1  21953189.211       88325.799        2038.296          43.750  
G 6  24902459.464     -106274.974       -2445.945          33.000  
G 4  22944957.775      -98024.830       -2242.131          40.250  
G20  20626838.274        3189.059          89.259          45.250  
> 2014  7  3 10 12  4.1688020  0  4                     
G 1  21953227.540       88529.674        2038.896          43.750  
G 6  24902412.834     -106519.590       -2445.330          33.000  
G 4  22944913.994      -98249.020       -2241.685          39.750  
G20  20626842.294        3197.978          89.596          45.000  
> 2014  7  3 10 12  4.2688020  0  4                     
G 1  21953267.436       88733.567        2039.240          43.500  
G 6  24902367.960     -106764.117       -2445.542          32.500  
G 4  22944872.501      -98473.163       -2241.568          39.500  
G20  20626847.403        3206.933          89.198          45.000  
> 2014  7  3 10 12  4.3688020  0  4                     
G 1  21953306.222       88937.449        2038.797          43.500  
G 6  24902319.526     -107008.735       -2445.458          33.250  
G 4  22944831.263      -98697.338       -2242.730          40.000  
G20  20626849.744        3215.877          88.679          45.000  
> 2014  7  3 10 12  4.4688020  0  4                     
G 1  21953345.538       89141.303        2038.790          44.000  
G 6  24902271.760     -107253.333       -2445.754          33.250  
G 4  22944788.798      -98921.536       -2241.744          40.000  
G20  20626850.108        3224.801          89.636          45.000  
> 2014  7  3 10 12  4.5688020  0  4                     
G 1  21953383.845       89345.184        2038.132          44.000  
G 6  24902224.063     -107497.928       -2445.848          33.000  
G 4  22944745.707      -99145.679       -2241.207          40.000  
G20  20626849.875        3233.774          89.278          45.000  
> 2014  7  3 10 12  4.6688020  0  4                     
G 1  21953422.019       89549.040        2038.861          44.000  
G 6  24902179.391     -107742.534       -2444.970          33.750  
G 4  22944704.798      -99369.878       -2240.322          40.000  
G20  20626849.474        3242.701          90.304          45.000  
> 2014  7  3 10 12  4.7688020  0  4                     
G 1  21953460.746       89752.933        2039.027          44.000  
G 6  24902132.564     -107987.135       -2447.203          33.250  
G 4  22944662.747      -99594.048       -2241.167          40.000  
G20  20626849.756        3251.679          90.201          45.250  
> 2014  7  3 10 12  4.8688020  0  4                     
G 1  21953499.232       89956.805        2038.714          44.000  
G 6  24902086.100     -108231.707       -2445.326          33.750  
G 4  22944619.914      -99818.213       -2242.306          40.000  
G20  20626850.032        3260.636          89.475          45.000  
> 2014  7  3 10 12  4.9688020  0  4                     
G 1  21953537.845       90160.688        2038.313          44.000  
G 6  24902042.147     -108476.322       -2446.532          33.500  
G 4  22944577.154     -100042.374       -2241.552          40.000  
G20  20626851.588        3269.612          89.768          45.250  
> 2014  7  3 10 12  5.0688020  0  4                     
G 1  21953576.895       90364.579        2039.560          43.750  
G 6  24901995.655     -108720.892       -2445.439          33.500  
G 4  22944533.812     -100266.539       -2241.107          40.000  
G20  20626854.148        3278.602          90.842          45.250  
> 2014  7  3 10 12  5.1688020  0  4                     
G 1  21953617.311       90568.457        2039.182          44.000  
G 6  24901948.682     -108965.472       -2445.968          33.750  
G 4  22944490.180     -100490.700       -2241.093          40.000  
G20  20626856.462        3287.583          89.111          45.000  
> 2014  7  3 10 12  5.2688020  0  4                     
G 1  21953655.317       90772.340        2038.857          43.750  
G 6  24901901.395     -109210.074       -2446.362          33.750  
G 4  22944446.747     -100714.859       -2241.883          40.000  
G20  20626860.714        3296.581          89.954          45.000  
> 2014  7  3 10 12  5.3688020  0  4                     
G 1  21953692.508       90976.208        2038.859          43.750  
G 6  24901854.220     -109454.658       -2445.209          33.750  
G 4  22944405.128     -100939.043       -2242.497          39.750  
G20  20626865.027        3305.551          89.606          45.000  
> 2014  7  3 10 12  5.4688020  0  4                     
G 1  21953731.093       91180.127        2038.898          43.750  
G 6  24901809.632     -109699.235       -2445.831          33.750  
G 4  22944362.457     -101163.172       -2240.744          40.000  
G20  20626868.114        3314.581          89.781          45.000  
> 2014  7  3 10 12  5.5688020  0  4                     
G 1  21953770.856       91384.036        2038.620          43.750  
G 6  24901762.343     -109943.787       -2445.301          33.500  
G 4  22944320.271     -101387.300       -2241.887          40.000  
G20  20626867.551        3323.618          90.503          45.250  
> 2014  7  3 10 12  5.6688020  0  4                     
G 1  21953809.315       91587.914        2038.123          44.000  
G 6  24901715.971     -110188.378       -2446.600          33.750  
G 4  22944276.081     -101611.455       -2241.982          40.000  
G20  20626868.062        3332.637          90.727          45.000  
> 2014  7  3 10 12  5.7688020  0  4                     
G 1  21953849.478       91791.835        2039.285          44.000  
G 6  24901673.233     -110432.905       -2445.083          34.000  
G 4  22944234.105     -101835.572       -2241.267          40.000  
G20  20626868.076        3341.688          91.171          45.250  
> 2014  7  3 10 12  5.8688020  0  4                     
G 1  21953888.738       91995.735        2038.336          43.750  
G 6  24901629.490     -110677.482       -2447.917          34.000  
G 4  22944193.558     -102059.717       -2242.106          39.750  
G20  20626868.662        3350.717          90.272          45.000  
> 2014  7  3 10 12  5.9688020  0  4                     
G 1  21953927.281       92199.613        2038.460          44.000  
G 6  24901584.003     -110922.102       -2446.245          34.250  
G 4  22944151.520     -102283.876       -2241.558          40.000  
G20  20626868.902        3359.733          89.859          45.250  
> 2014  7  3 10 12  6.0688020  0  4                     
G 1  21953967.058       92403.473        2038.645          44.000  
G 6  24901537.554     -111166.706       -2446.684          34.250  
G 4  22944109.812     -102508.039       -2240.864          40.000  
G20  20626870.368        3368.743          90.597          45.250  
> 2014  7  3 10 12  6.1688020  0  4                     
G 1  21954005.879       92607.396        2039.207          43.750  
G 6  24901489.305     -111411.261       -2446.068          34.250  
G 4  22944066.618     -102732.173       -2241.010          39.500  
G20  20626871.606        3377.814          90.271          45.000  
> 2014  7  3 10 12  6.2688020  0  4                     
G 1  21954044.994       92811.285        2039.395          44.000  
G 6  24901443.719     -111655.840       -2445.011          34.250  
G 4  22944023.104     -102956.321       -2242.092          40.000  
G20  20626875.070        3386.870          90.355          45.000  
> 2014  7  3 10 12  6.3688020  0  4                     
G 1  21954084.044       93015.212        2038.995          43.750  
G 6  24901396.768     -111900.410       -2445.753          34.250  
G 4  22943980.432     -103180.437       -2241.730          39.750  
G20  20626878.220        3395.952          90.725          45.250  
> 2014  7  3 10 12  6.4688020  0  4                     
G 1  21954122.370       93219.078        2039.335          43.750  
G 6  24901350.096     -112145.003       -2445.731          34.250  
G 4  22943938.119     -103404.602       -2241.291          40.000  
G20  20626883.915        3404.987          90.850          45.000  
> 2014  7  3 10 12  6.5688020  0  4                     
G 1  21954160.362       93423.024        2039.623          44.000  
G 6  24901302.445     -112389.535       -2444.406          34.500  
G 4  22943896.140     -103628.685       -2240.006          39.750  
G20  20626886.515        3414.102          91.328          45.000  
> 2014  7  3 10 12  6.6688020  0  4                     
G 1  21954199.451       93626.976        2039.917          44.000  
G 6  24901256.800     -112634.058       -2445.591          34.500  
G 4  22943854.747     -103852.774       -2239.635          40.000  
G20  20626886.045        3423.230          91.798          45.250  
> 2014  7  3 10 12  6.7688020  0  4                     
G 1  21954236.953       93830.936        2039.199          43.750  
G 6  24901208.377     -112878.583       -2445.812          34.250  
G 4  22943812.854     -104076.841       -2239.479          40.000  
G20  20626886.706        3432.366          91.048          45.250  
> 2014  7  3 10 12  6.8688020  0  4                     
G 1  21954275.916       94034.905        2040.162          43.750  
G 6  24901163.750     -113123.095       -2445.767          34.000  
G 4  22943769.962     -104300.918       -2242.030          40.000  
G20  20626886.002        3441.523          91.328          45.250  
> 2014  7  3 10 12  6.9688020  0  4                     
G 1  21954314.201       94238.879        2039.785          44.000  
G 6  24901116.496     -113367.588       -2444.703          34.250  
G 4  22943726.927     -104524.972       -2240.481          40.000  
G20  20626886.479        3450.690          91.824          45.250  
> 2014  7  3 10 12  7.0688020  0  4                     
G 1  21954352.488       94442.794        2038.984          44.000  
G 6  24901067.531     -113612.139       -2445.898          34.750  
G 4  22943684.170     -104749.091       -2242.154          40.000  
G20  20626886.576        3459.800          91.251          45.250  
> 2014  7  3 10 12  7.1688020  0  4                     
G 1  21954390.384       94646.718        2039.244          44.000  
G 6  24901022.138     -113856.717       -2445.160          34.500  
G 4  22943640.952     -104973.210       -2241.322          40.000  
G20  20626888.007        3468.919          91.613          45.250  
> 2014  7  3 10 12  7.2688020  0  4                     
G 1  21954429.046       94850.647        2039.043          43.750  
G 6  24900977.912     -114101.260       -2446.469          34.500  
G 4  22943598.389     -105197.295       -2241.490          40.250  
G20  20626891.036        3478.063          90.784          45.250  
> 2014  7  3 10 12  7.3688020  0  4                     
G 1  21954468.649       95054.573        2038.804          44.000  
G 6  24900930.286     -114345.795       -2445.437          34.750  
G 4  22943554.363     -105421.387       -2241.112          39.750  
G20  20626894.755        3487.201          91.265          45.250  
> 2014  7  3 10 12  7.4688020  0  4                     
G 1  21954507.287       95258.501        2039.645          44.000  
G 6  24900884.137     -114590.351       -2444.712          34.250  
G 4  22943511.926     -105645.501       -2240.940          40.000  
G20  20626899.297        3496.335          91.087          45.250  
> 2014  7  3 10 12  7.5688020  0  4                     
G 1  21954546.515       95462.416        2039.139          44.000  
G 6  24900839.914     -114834.928       -2445.362          34.250  
G 4  22943469.516     -105869.606       -2241.147          39.500  
G20  20626905.133        3505.486          92.026          45.000  
> 2014  7  3 10 12  7.6688020  0  4                     
G 1  21954584.625       95666.337        2039.086          44.000  
G 6  24900794.380     -115079.469       -2445.268          34.250  
G 4  22943424.277     -106093.720       -2241.393          39.750  
G20  20626904.864        3514.621          91.650          45.250  
> 2014  7  3 10 12  7.7688020  0  4                     
G 1  21954624.317       95870.271        2039.680          43.750  
G 6  24900747.592     -115324.017       -2444.993          34.500  
G 4  22943381.138     -106317.795       -2239.789          39.750  
G20  20626904.764        3523.785          91.203          45.500  
> 2014  7  3 10 12  7.8688020  0  4                     
G 1  21954662.667       96074.217        2039.137          43.750  
G 6  24900700.455     -115568.544       -2445.467          34.500  
G 4  22943338.604     -106541.882       -2240.791          39.750  
G20  20626905.537        3532.971          92.141          45.000  
> 2014  7  3 10 12  7.9688020  0  4                     
G 1  21954701.024       96278.146        2039.373          44.000  
G 6  24900656.581     -115813.113       -2445.987          34.500  
G 4  22943294.771     -106765.965       -2239.828          39.750  
G20  20626905.346        3542.126          91.078          45.250  
> 2014  7  3 10 12  8.0688020  0  4                     
G 1  21954740.304       96482.124        2039.560          44.000  
G 6  24900609.798     -116057.625       -2446.319          34.500  
G 4  22943251.652     -106990.027       -2240.565          40.000  
G20  20626906.434        3551.358          92.058          45.250  
> 2014  7  3 10 12  8.1688020  0  4                     
G 1  21954779.891       96686.093        2039.413          44.000  
G 6  24900564.739     -116302.121       -2444.426          34.250  
G 4  22943209.437     -107214.064       -2241.351          39.750  
G20  20626907.747        3560.593          91.853          45.250  
> 2014  7  3 10 12  8.2688020  0  4                     
G 1  21954820.050       96890.075        2040.073          44.000  
G 6  24900519.819     -116546.621       -2445.739          34.250  
G 4  22943168.150     -107438.131       -2241.310          40.000  
G20  20626910.644        3569.819          91.856          45.000  
> 2014  7  3 10 12  8.3688020  0  4                     
G 1  21954859.304       97094.052        2039.769          44.000  
G 6  24900470.546     -116791.125       -2446.329          34.750  
G 4  22943125.997     -107662.166       -2239.083          39.500  
G20  20626914.799        3579.060          92.734          45.250  
> 2014  7  3 10 12  8.4688020  0  4                     
G 1  21954898.066       97298.005        2039.746          44.000  
G 6  24900423.827     -117035.635       -2442.844          34.000  
G 4  22943082.598     -107886.240       -2240.639          39.500  
G20  20626919.087        3588.270          92.336          45.250  
> 2014  7  3 10 12  8.5688020  0  4                     
G 1  21954936.732       97501.996        2039.416          44.000  
G 6  24900376.514     -117280.144       -2444.766          34.500  
G 4  22943040.064     -108110.268       -2240.892          39.750  
G20  20626922.748        3597.516          92.852          45.250  
> 2014  7  3 10 12  8.6688020  0  4                     
G 1  21954975.898       97706.005        2039.768          43.750  
G 6  24900332.921     -117524.618       -2445.266          34.250  
G 4  22942997.238     -108334.277       -2239.836          39.750  
G20  20626922.900        3606.809          92.711          45.250  
> 2014  7  3 10 12  8.7688020  0  4                     
G 1  21955014.811       97909.975        2040.146          44.000  
G 6  24900286.289     -117769.115       -2445.122          34.500  
G 4  22942955.940     -108558.326       -2240.282          39.500  
G20  20626923.330        3616.060          92.167          45.250  
> 2014  7  3 10 12  8.8688020  0  4                     
G 1  21955053.418       98113.934        2039.155          44.000  
G 6  24900238.227     -118013.627       -2443.993          34.250  
G 4  22942914.232     -108782.386       -2240.785          39.750  
G20  20626923.183        3625.299          92.079          45.250  
> 2014  7  3 10 12  8.9688020  0  4                     
G 1  21955091.724       98317.895        2040.232          44.000  
G 6  24900191.983     -118258.160       -2446.063          34.250  
G 4  22942870.466     -109006.458       -2241.011          39.500  
G20  20626924.347        3634.546          92.354          45.250  
> 2014  7  3 10 12  9.0688020  0  4                     
G 1  21955130.334       98521.858        2039.923          43.750  
G 6  24900142.054     -118502.678       -2443.792          34.000  
G 4  22942827.880     -109230.494       -2240.093          39.500  
G20  20626925.521        3643.806          92.595          45.250  
> 2014  7  3 10 12  9.1688020  0  4                     
G 1  21955168.274       98725.855        2039.725          44.000  
G 6  24900098.231     -118747.163       -2444.431          34.500  
G 4  22942784.751     -109454.536       -2239.548          39.250  
G20  20626927.305        3653.095          93.318          45.250  
> 2014  7  3 10 12  9.2688020  0  4                     
G 1  21955207.560       98929.845        2039.727          43.750  
G 6  24900053.623     -118991.675       -2445.496          34.250  
G 4  22942742.203     -109678.563       -2240.543          39.500  
G20  20626930.037        3662.387          92.684          45.250  
> 2014  7  3 10 12  9.3688020  0  4                     
G 1  21955246.048       99133.805        2039.521          44.000  
G 6  24900006.384     -119236.206       -2445.702          34.500  
G 4  22942700.412     -109902.601       -2240.991          39.750  
G20  20626932.841        3671.663          92.831          45.250  
> 2014  7  3 10 12  9.4688020  0  4                     
G 1  21955284.962       99337.796        2039.512          44.000  
G 6  24899961.401     -119480.708       -2445.697          34.750  
G 4  22942658.935     -110126.646       -2241.570          39.750  
G20  20626936.344        3680.953          92.688          45.250  
> 2014  7  3 10 12  9.5688020  0  4                     
G 1  21955323.864       99541.747        2040.293          44.000  
G 6  24899914.421     -119725.237       -2445.229          34.750  
G 4  22942614.190     -110350.714       -2239.918          39.750  
G20  20626941.387        3690.222          93.324          45.250  
> 2014  7  3 10 12  9.6688020  0  4                     
G 1  21955362.583       99745.737        2040.039          44.000  
G 6  24899866.725     -119969.731       -2446.440          34.250  
G 4  22942570.986     -110574.748       -2240.067          39.750  
G20  20626941.264        3699.525          92.627          45.250  
> 2014  7  3 10 12  9.7688020  0  4                     
G 1  21955401.399       99949.694        2039.925          44.000  
G 6  24899821.165     -120214.265       -2443.967          34.500  
G 4  22942527.860     -110798.787       -2240.185          39.750  
G20  20626940.942        3708.817          92.794          45.250  
> 2014  7  3 10 12  9.8688020  0  4                     
G 1  21955440.320      100153.628        2038.991          44.000  
G 6  24899772.406     -120458.826       -2446.099          35.000  
G 4  22942486.200     -111022.866       -2240.142          39.500  
G20  20626941.145        3718.081          92.266          45.250  
> 2014  7  3 10 12  9.9688020  0  4                     
G 1  21955480.033      100357.567        2039.884          44.000  
G 6  24899726.208     -120703.343       -2443.864          34.750  
G 4  22942444.970     -111246.950       -2240.161          39.750  
G20  20626941.338        3727.354          93.439          45.250  
> 2014  7  3 10 12 10.0688020  0  4                     
G 1  21955518.374      100561.535        2039.874          44.000  
G 6  24899679.703     -120947.875       -2444.525          34.500  
G 4  22942402.165     -111470.990       -2239.508          39.750  
G20  20626941.596        3736.662          93.531          45.250  
> 2014  7  3 10 12 10.1688020  0  4                     
G 1  21955557.491      100765.497        2039.872          44.000  
G 6  24899632.078     -121192.410       -2445.159          34.750  
G 4  22942360.500     -111695.038       -2241.316          40.000  
G20  20626942.420        3745.970          93.285          45.250  
> 2014  7  3 10 12 10.2688020  0  4                     
G 1  21955595.858      100969.480        2040.413          44.000  
G 6  24899584.887     -121436.912       -2444.161          34.250  
G 4  22942316.193     -111919.073       -2240.477          39.750  
G20  20626944.032        3755.302          93.144          45.250  
> 2014  7  3 10 12 10.3688020  0  4                     
G 1  21955635.534      101173.455        2039.563          44.000  
G 6  24899539.002     -121681.420       -2445.068          34.750  
G 4  22942270.717     -112143.097       -2240.341          39.750  
G20  20626946.921        3764.645          93.165          45.250  
> 2014  7  3 10 12 10.4688020  0  4                     
G 1  21955674.799      101377.431        2039.694          44.000  
G 6  24899489.668     -121925.923       -2445.759          34.500  
G 4  22942227.268     -112367.126       -2239.965          39.500  
G20  20626950.658        3773.980          93.491          45.250  
> 2014  7  3 10 12 10.5688020  0  4                     
G 1  21955712.988      101581.391        2039.225          44.000  
G 6  24899443.040     -122170.451       -2445.589          34.250  
G 4  22942186.088     -112591.153       -2239.946          39.750  
G20  20626955.390        3783.319          93.845          45.000  
> 2014  7  3 10 12 10.6688020  0  4                     
G 1  21955752.046      101785.392        2040.623          44.000  
G 6  24899396.269     -122414.940       -2445.494          34.250  
G 4  22942143.232     -112815.178       -2240.230          40.000  
G20  20626960.020        3792.680          94.222          45.000  
> 2014  7  3 10 12 10.7688020  0  4                     
G 1  21955791.661      101989.380        2039.968          44.000  
G 6  24899350.276     -122659.446       -2444.222          34.500  
G 4  22942103.943     -113039.203       -2240.386          40.000  
G20  20626959.658        3802.042          93.301          45.250  
> 2014  7  3 10 12 10.8688020  0  4                     
G 1  21955830.463      102193.384        2040.918          44.000  
G 6  24899305.663     -122903.936       -2445.160          34.500  
G 4  22942062.462     -113263.216       -2239.995          39.750  
G20  20626959.446        3811.407          93.680          45.250  
> 2014  7  3 10 12 10.9688020  0  4                     
G 1  21955869.715      102397.356        2039.793          44.000  
G 6  24899259.684     -123148.443       -2445.812          34.750  
G 4  22942022.791     -113487.235       -2240.483          40.000  
G20  20626959.826        3820.783          93.455          45.250  
> 2014  7  3 10 12 11.0688020  0  4                     
G 1  21955907.247      102601.322        2039.561          44.000  
G 6  24899210.331     -123392.957       -2444.850          34.750  
G 4  22941980.612     -113711.280       -2241.094          40.000  
G20  20626960.145        3830.141          93.897          45.250  
> 2014  7  3 10 12 11.1688020  0  4                     
G 1  21955945.498      102805.314        2039.164          43.750  
G 6  24899166.713     -123637.453       -2444.293          34.500  
G 4  22941938.202     -113935.288       -2240.313          39.750  
G20  20626961.040        3839.519          93.176          45.000  
> 2014  7  3 10 12 11.2688020  0  4                     
G 1  21955984.634      103009.274        2038.525          44.000  
G 6  24899121.483     -123881.974       -2446.311          34.000  
G 4  22941895.522     -114159.332       -2240.266          39.750  
G20  20626961.662        3848.885          94.187          45.250  
> 2014  7  3 10 12 11.3688020  0  4                     
G 1  21956022.739      103213.270        2039.063          43.750  
G 6  24899072.844     -124126.501       -2444.947          34.250  
G 4  22941852.136     -114383.327       -2238.648          40.000  
G20  20626962.937        3858.275          94.672          45.250  
> 2014  7  3 10 12 11.4688020  0  4                     
G 1  21956061.482      103417.275        2040.217          44.000  
G 6  24899025.248     -124370.975       -2444.411          34.250  
G 4  22941809.071     -114607.327       -2238.180          39.750  
G20  20626966.321        3867.700          94.438          45.250  
> 2014  7  3 10 12 11.5688020  0  4                     
G 1  21956101.411      103621.304        2040.692          44.000  
G 6  24898976.549     -124615.422       -2444.446          34.250  
G 4  22941766.069     -114831.291       -2239.112          39.500  
G20  20626970.303        3877.148          95.110          45.250  
> 2014  7  3 10 12 11.6688020  0  4                     
G 1  21956139.764      103825.344        2040.352          44.000  
G 6  24898930.654     -124859.889       -2445.339          34.250  
G 4  22941723.344     -115055.266       -2239.842          39.750  
G20  20626975.981        3886.593          93.798          45.250  
> 2014  7  3 10 12 11.7688020  0  4                     
G 1  21956177.090      104029.330        2039.980          44.250  
G 6  24898882.080     -125104.385       -2444.300          35.000  
G 4  22941681.413     -115279.283       -2239.961          39.500  
G20  20626978.497        3896.014          94.023          45.250  
> 2014  7  3 10 12 11.8688020  0  4                     
G 1  21956216.013      104233.333        2039.881          44.000  
G 6  24898835.512     -125348.889       -2443.709          34.500  
G 4  22941637.754     -115503.275       -2238.743          39.750  
G20  20626978.243        3905.442          94.841          45.000  
> 2014  7  3 10 12 11.9688020  0  4                     
G 1  21956254.088      104437.334        2039.391          44.000  
G 6  24898789.013     -125593.346       -2444.950          34.750  
G 4  22941594.654     -115727.262       -2240.367          39.500  
G20  20626977.805        3914.884          93.777          45.250  
> 2014  7  3 10 12 12.0688020  0  4                     
G 1  21956293.435      104641.320        2039.581          44.000  
G 6  24898742.225     -125837.869       -2445.564          34.750  
G 4  22941551.174     -115951.277       -2239.849          39.750  
G20  20626978.782        3924.310          94.810          45.250  
> 2014  7  3 10 12 12.1688020  0  4                     
G 1  21956331.473      104845.327        2039.609          44.000  
G 6  24898697.264     -126082.353       -2445.335          34.750  
G 4  22941507.940     -116175.268       -2239.515          39.500  
G20  20626979.491        3933.766          93.822          45.250  
> 2014  7  3 10 12 12.2688020  0  4                     
G 1  21956370.106      105049.362        2039.937          43.750  
G 6  24898650.691     -126326.811       -2445.216          34.750  
G 4  22941465.489     -116399.233       -2239.126          39.750  
G20  20626981.460        3943.234          94.489          45.500  
> 2014  7  3 10 12 12.3688020  0  4                     
G 1  21956409.309      105253.414        2040.111          44.000  
G 6  24898605.107     -126571.257       -2443.455          34.750  
G 4  22941422.233     -116623.179       -2240.157          39.500  
G20  20626984.067        3952.743          94.736          45.500  
> 2014  7  3 10 12 12.4688020  0  4                     
G 1  21956448.023      105457.458        2040.417          44.000  
G 6  24898560.856     -126815.695       -2444.524          35.250  
G 4  22941380.763     -116847.121       -2239.345          39.500  
G20  20626987.140        3962.240          94.615          45.500  
> 2014  7  3 10 12 12.5688020  0  4                     
G 1  21956486.957      105661.503        2040.593          44.000  
G 6  24898513.918     -127060.169       -2442.154          34.750  
G 4  22941338.431     -117071.074       -2239.126          39.750  
G20  20626990.818        3971.759          94.891          45.250  
> 2014  7  3 10 12 12.6688020  0  4                     
G 1  21956525.043      105865.545        2040.050          44.000  
G 6  24898469.783     -127304.639       -2445.935          35.250  
G 4  22941295.303     -117295.014       -2239.710          39.750  
G20  20626996.282        3981.259          94.880          45.250  
> 2014  7  3 10 12 12.7688020  0  4                     
G 1  21956564.080      106069.546        2039.991          44.000  
G 6  24898422.841     -127549.103       -2443.807          35.250  
G 4  22941250.336     -117519.018       -2239.915          39.750  
G20  20626996.178        3990.741          96.016          45.250  
> 2014  7  3 10 12 12.8688020  0  4                     
G 1  21956603.284      106273.613        2040.948          43.750  
G 6  24898378.030     -127793.557       -2444.412          35.250  
G 4  22941208.291     -117742.948       -2238.852          39.750  
G20  20626996.061        4000.267          95.186          45.250  
> 2014  7  3 10 12 12.9688020  0  4                     
G 1  21956642.470      106477.632        2039.871          44.000  
G 6  24898330.515     -128038.011       -2444.748          35.250  
G 4  22941165.716     -117966.909       -2239.129          39.750  
G20  20626996.269        4009.778          95.298          45.250  
> 2014  7  3 10 12 13.0688020  0  4                     
G 1  21956683.659      106681.663        2039.253          43.750  
G 6  24898283.974     -128282.488       -2444.890          35.000  
G 4  22941124.586     -118190.871       -2240.742          39.500  
G20  20626996.333        4019.291          95.428          45.250  
> 2014  7  3 10 12 13.1688020  0  4                     
G 1  21956721.666      106885.706        2040.659          44.000  
G 6  24898238.359     -128526.941       -2444.434          35.250  
G 4  22941079.714     -118414.822       -2239.935          39.750  
G20  20626998.184        4028.825          95.391          45.500  
> 2014  7  3 10 12 13.2688020  0  4                     
G 1  21956760.456      107089.708        2040.133          44.000  
G 6  24898192.903     -128771.434       -2444.666          35.500  
G 4  22941036.449     -118638.801       -2239.544          40.000  
G20  20626999.929        4038.325          95.256          45.250  
> 2014  7  3 10 12 13.3688020  0  4                     
G 1  21956798.513      107293.722        2040.710          44.000  
G 6  24898148.783     -129015.923       -2444.300          35.000  
G 4  22940994.272     -118862.765       -2238.469          39.500  
G20  20627001.854        4047.842          95.922          45.250  
> 2014  7  3 10 12 13.4688020  0  4                     
G 1  21956837.905      107497.754        2040.580          44.000  
G 6  24898101.740     -129260.402       -2445.005          34.750  
G 4  22940952.476     -119086.736       -2239.725          39.500  
G20  20627004.477        4057.376          96.036          45.250  
> 2014  7  3 10 12 13.5688020  0  4                     
G 1  21956877.504      107701.763        2040.347          44.000  
G 6  24898054.402     -129504.868       -2444.568          35.250  
G 4  22940909.619     -119310.728       -2240.508          39.500  
G20  20627008.435        4066.898          95.456          45.250  
> 2014  7  3 10 12 13.6688020  0  4                     
G 1  21956916.661      107905.799        2040.262          44.000  
G 6  24898003.909     -129749.329       -2444.281          35.250  
G 4  22940866.634     -119534.667       -2239.342          39.250  
G20  20627013.624        4076.448          95.865          45.250  
> 2014  7  3 10 12 13.7688020  0  4                     
G 1  21956955.713      108109.871        2040.892          44.000  
G 6  24897958.127     -129993.780       -2445.883          35.250  
G 4  22940826.510     -119758.592       -2239.855          39.500  
G20  20627014.276        4086.032          95.476          45.250  
> 2014  7  3 10 12 13.8688020  0  4                     
G 1  21956994.588      108313.896        2040.242          44.000  
G 6  24897912.308     -130238.219       -2443.559          35.500  
G 4  22940783.822     -119982.534       -2239.725          39.750  
G20  20627014.790        4095.589          95.418          45.250  
> 2014  7  3 10 12 13.9688020  0  4                     
G 1  21957033.484      108517.930        2040.769          44.250  
G 6  24897866.709     -130482.688       -2445.118          35.000  
G 4  22940738.955     -120206.508       -2239.876          39.500  
G20  20627014.797        4105.146          95.377          45.250  
> 2014  7  3 10 12 14.0688020  0  4                     
G 1  21957071.411      108721.982        2040.386          44.000  
G 6  24897821.153     -130727.155       -2444.833          35.500  
G 4  22940697.752     -120430.425       -2238.833          39.500  
G20  20627014.989        4114.749          96.863          45.250  
> 2014  7  3 10 12 14.1688020  0  4                     
G 1  21957111.297      108926.045        2040.486          44.000  
G 6  24897773.446     -130971.574       -2443.213          35.500  
G 4  22940655.261     -120654.339       -2238.615          39.500  
G20  20627016.157        4124.338          96.274          45.500  
> 2014  7  3 10 12 14.2688020  0  4                     
G 1  21957149.563      109130.105        2040.674          44.000  
G 6  24897725.436     -131216.019       -2444.841          35.250  
G 4  22940613.113     -120878.258       -2238.846          39.750  
G20  20627017.699        4133.951          95.411          45.500  
> 2014  7  3 10 12 14.3688020  0  4                     
G 1  21957188.769      109334.184        2041.131          44.250  
G 6  24897679.670     -131460.464       -2444.100          35.500  
G 4  22940569.816     -121102.166       -2238.822          39.500  
G20  20627019.899        4143.568          96.731          45.250  
> 2014  7  3 10 12 14.4688020  0  4                     
G 1  21957227.761      109538.253        2040.319          44.000  
G 6  24897633.060     -131704.879       -2444.322          35.500  
G 4  22940527.197     -121326.082       -2240.185          39.750  
G20  20627022.625        4153.206          96.469          45.250  
> 2014  7  3 10 12 14.5688020  0  4                     
G 1  21957266.175      109742.328        2041.310          44.000  
G 6  24897588.055     -131949.313       -2443.843          35.500  
G 4  22940485.090     -121549.992       -2239.221          39.500  
G20  20627026.482        4162.824          96.114          45.250  
> 2014  7  3 10 12 14.6688020  0  4                     
G 1  21957304.012      109946.403        2040.640          44.000  
G 6  24897542.168     -132193.727       -2443.353          35.500  
G 4  22940442.377     -121773.886       -2239.252          39.500  
G20  20627032.091        4172.473          96.616          45.250  
> 2014  7  3 10 12 14.7688020  0  4                     
G 1  21957343.597      110150.487        2041.374          44.000  
G 6  24897495.717     -132438.138       -2443.526          35.250  
G 4  22940398.185     -121997.776       -2238.510          39.750  
G20  20627033.118        4182.128          97.147          45.250  
> 2014  7  3 10 12 14.8688020  0  4                     
G 1  21957382.471      110354.567        2040.439          44.000  
G 6  24897449.054     -132682.575       -2444.892          35.250  
G 4  22940355.152     -122221.683       -2239.289          39.500  
G20  20627033.476        4191.777          96.093          45.500  
> 2014  7  3 10 12 14.9688020  0  4                     
G 1  21957420.809      110558.625        2040.718          44.000  
G 6  24897402.481     -132927.026       -2445.498          35.250  
G 4  22940312.411     -122445.593       -2238.441          39.500  
G20  20627033.326        4201.412          96.524          45.250  
> 2014  7  3 10 12 15.0688020  0  4                     
G 1  21957459.363      110762.720        2040.543          44.000  
G 6  24897353.795     -133171.420       -2444.304          35.500  
G 4  22940269.582     -122669.475       -2239.045          39.750  
G20  20627032.669        4211.090          96.532          45.250  
> 2014  7  3 10 12 15.1688020  0  4                     
G 1  21957498.038      110966.792        2041.586          44.000  
G 6  24897307.931     -133415.854       -2443.540          35.750  
G 4  22940227.942     -122893.381       -2238.298          39.500  
G20  20627033.388        4220.751          96.910          45.250  
> 2014  7  3 10 12 15.2688020  0  4                     
G 1  21957537.532      111170.882        2040.497          43.750  
G 6  24897261.041     -133660.271       -2445.791          35.500  
G 4  22940186.831     -123117.257       -2239.213          39.500  
G20  20627035.105        4230.442          96.845          45.500  
> 2014  7  3 10 12 15.3688020  0  4                     
G 1  21957575.849      111374.969        2040.837          44.000  
G 6  24897215.620     -133904.668       -2443.992          35.500  
G 4  22940144.981     -123341.145       -2238.561          39.500  
G20  20627036.285        4240.136          96.960          45.250  
> 2014  7  3 10 12 15.4688020  0  4                     
G 1  21957616.006      111579.071        2040.583          44.000  
G 6  24897169.617     -134149.076       -2444.458          35.500  
G 4  22940102.673     -123565.023       -2238.701          39.500  
G20  20627038.602        4249.837          97.215          45.250  
> 2014  7  3 10 12 15.5688020  0  4                     
G 1  21957654.610      111783.131        2040.685          44.000  
G 6  24897123.147     -134393.498       -2442.893          35.500  
G 4  22940058.357     -123788.921       -2239.308          39.500  
G20  20627042.224        4259.502          97.032          45.250  
> 2014  7  3 10 12 15.6688020  0  4                     
G 1  21957693.326      111987.202        2040.183          44.000  
G 6  24897074.659     -134637.944       -2443.735          35.000  
G 4  22940014.806     -124012.830       -2239.131          39.750  
G20  20627047.543        4269.184          96.514          45.000  
